{
"type": "FeatureCollection",
"name": "Estaciones de Metro",
"crs": { "type": "name", "properties": { "name": "urn:ogc:def:crs:OGC:1.3:CRS84" } },
"features": [
{ "type": "Feature", "properties": { "Name": "Acatitla", "description": "Línea A. Santa Martha Acatitla, Iztapalapa, Ciudad de México, DF, México" }, "geometry": { "type": "Point", "coordinates": [ -99.0056777, 19.3647171 ] } },
{ "type": "Feature", "properties": { "Name": "Aculco", "description": "Línea 8. Jardínes de Churubusco, Iztapalapa, 09410 Ciudad de México, DF, México" }, "geometry": { "type": "Point", "coordinates": [ -99.1077197, 19.3737557 ] } },
{ "type": "Feature", "properties": { "Name": "Agrícola Oriental", "description": "Línea A. Pantitlan, Iztacalco, 08100 Ciudad de México, DF, México" }, "geometry": { "type": "Point", "coordinates": [ -99.0698737, 19.4047948 ] } },
{ "type": "Feature", "properties": { "Name": "Allende", "description": "Línea 2. República de Guatemala, Centro, Cuauhtémoc, 06010 Ciudad de México, DF, México" }, "geometry": { "type": "Point", "coordinates": [ -99.1369029, 19.4356521 ] } },
{ "type": "Feature", "properties": { "Name": "Apatlaco", "description": "Línea 8. Eje 3 Oriente (Francisco del Paso y Troncoso), Purísima Atlazolpa, Iztapalapa, 09429 Ciudad de México, DF, México" }, "geometry": { "type": "Point", "coordinates": [ -99.1095865, 19.3793223 ] } },
{ "type": "Feature", "properties": { "Name": "Aquiles Serdán", "description": "Línea 7. Tezozomoc, Azcapotzalco, 02700 Ciudad de México, DF, México" }, "geometry": { "type": "Point", "coordinates": [ -99.1948807, 19.4905036 ] } },
{ "type": "Feature", "properties": { "Name": "Aragón", "description": "Línea 5. Simon Bolívar, 15410 Ciudad de México, DF, México" }, "geometry": { "type": "Point", "coordinates": [ -99.0963578, 19.4511957 ] } },
{ "type": "Feature", "properties": { "Name": "Atlalilco", "description": "Línea 8. Ampliación Ricardo Flores Magón, Iztapalapa, 09000 Ciudad de México, DF, México" }, "geometry": { "type": "Point", "coordinates": [ -99.1013199, 19.3561791 ] } },
{ "type": "Feature", "properties": { "Name": "Auditorio", "description": "Línea 7. Bosque de Chapultepec I, Miguel Hidalgo, 11100 Ciudad de México, DF, México" }, "geometry": { "type": "Point", "coordinates": [ -99.1919732, 19.4255433 ] } },
{ "type": "Feature", "properties": { "Name": "Autobuses del Norte", "description": "Línea 5. Eje Central (Lázaro Cárdenas), Panamericana, Gustavo A. Madero, 07770 Ciudad de México, DF, México" }, "geometry": { "type": "Point", "coordinates": [ -99.1407001, 19.4790945 ] } },
{ "type": "Feature", "properties": { "Name": "Azcapotzalco", "description": "Línea 6. Eje 4 Norte (Refinería Azcapotzalco), Reynosa Tamaulipas, Azcapotzalco, 02700 Ciudad de México, DF, México" }, "geometry": { "type": "Point", "coordinates": [ -99.1864371, 19.4910143 ] } },
{ "type": "Feature", "properties": { "Name": "Balbuena", "description": "Línea 1. Jardín Balbuena, 15900 Ciudad de México, DF, México." }, "geometry": { "type": "Point", "coordinates": [ -99.102264, 19.4232414 ] } },
{ "type": "Feature", "properties": { "Name": "Balderas", "description": "Línea 1, 3. Calle de Balderas, Centro, Cuauhtémoc, 06000 Ciudad de México, DF, México" }, "geometry": { "type": "Point", "coordinates": [ -99.149074, 19.42741 ] } },
{ "type": "Feature", "properties": { "Name": "Barranca del Muerto", "description": "Línea 7 (Estación Terminal). Merced Gómez, Álvaro Obregón, 01010 Ciudad de México, DF, México" }, "geometry": { "type": "Point", "coordinates": [ -99.189586, 19.3607037 ] } },
{ "type": "Feature", "properties": { "Name": "Bellas Artes", "description": "Línea 2, 8. Angela Peralta, Centro, Cuauhtémoc, Ciudad de México, DF, México" }, "geometry": { "type": "Point", "coordinates": [ -99.1419393, 19.4361922 ] } },
{ "type": "Feature", "properties": { "Name": "Bondojito", "description": "Línea 4. Tablas de San Aguistin, Gustavo A. Madero, 07860 Ciudad de México, DF, México" }, "geometry": { "type": "Point", "coordinates": [ -99.1119307, 19.4647057 ] } },
{ "type": "Feature", "properties": { "Name": "Bosque de Aragón", "description": "Línea B. San Juan de Aragón 4a Sección, Gustavo A. Madero, 07979 Ciudad de México, DF, México" }, "geometry": { "type": "Point", "coordinates": [ -99.0692568, 19.4581051 ] } },
{ "type": "Feature", "properties": { "Name": "Boulevard Puerto Aéreo", "description": "Línea 1. Calz Ignacio Zaragoza, Industrial Puerto Aéreo, 15710 Ciudad de México, DF, México" }, "geometry": { "type": "Point", "coordinates": [ -99.0960038, 19.4197101 ] } },
{ "type": "Feature", "properties": { "Name": "Calle 11", "description": "Línea 12. Nota: la localización de la estación es aproximada a esta marca." }, "geometry": { "type": "Point", "coordinates": [ -99.085865020751996, 19.320478519082901 ] } },
{ "type": "Feature", "properties": { "Name": "Camarones", "description": "Línea 7. San Miguel Amantla, Azcapotzalco, 02700 Ciudad de México, DF, México" }, "geometry": { "type": "Point", "coordinates": [ -99.19016, 19.479226 ] } },
{ "type": "Feature", "properties": { "Name": "Canal de San Juan", "description": "Línea A. Pantitlan, Iztacalco, 08100 Ciudad de México, DF, México" }, "geometry": { "type": "Point", "coordinates": [ -99.0593863, 19.3987332 ] } },
{ "type": "Feature", "properties": { "Name": "Canal del Norte", "description": "Línea 4. Michoacana, 15240 Ciudad de México, DF, México" }, "geometry": { "type": "Point", "coordinates": [ -99.1161579, 19.4488638 ] } },
{ "type": "Feature", "properties": { "Name": "Candelaria", "description": "Línea 1, 4. El Parque, 15960 Ciudad de México, DF, México" }, "geometry": { "type": "Point", "coordinates": [ -99.1194355, 19.4288468 ] } },
{ "type": "Feature", "properties": { "Name": "Centro Médico", "description": "Línea 3, 9. Avenida Cuauhtémoc 330, Doctores, Cuauhtémoc, 06720 Ciudad de México, DF, México" }, "geometry": { "type": "Point", "coordinates": [ -99.1552055, 19.4066618 ] } },
{ "type": "Feature", "properties": { "Name": "Cerro de la Estrella", "description": "Línea 8. San Miguel, Iztapalapa, 09360 Ciudad de México, DF, México" }, "geometry": { "type": "Point", "coordinates": [ -99.085511, 19.3560526 ] } },
{ "type": "Feature", "properties": { "Name": "Chabacano", "description": "Línea 2, 8 y 9. Vista Alegre, Cuauhtémoc, 06860 Ciudad de México, DF, México" }, "geometry": { "type": "Point", "coordinates": [ -99.1357434, 19.4084883 ] } },
{ "type": "Feature", "properties": { "Name": "Chapultepec", "description": "Línea 1. Av Chapultepec, Condesa, Cuauhtémoc, 06700 Ciudad de México, DF, México" }, "geometry": { "type": "Point", "coordinates": [ -99.1762608, 19.420813 ] } },
{ "type": "Feature", "properties": { "Name": "Chilpancingo", "description": "Línea 9. Hipódromo, Cuauhtémoc, 06100 Ciudad de México, DF, México" }, "geometry": { "type": "Point", "coordinates": [ -99.1684502, 19.406171 ] } },
{ "type": "Feature", "properties": { "Name": "Ciudad Azteca", "description": "Línea B. San Agustín 3ra Sección, 55120 MEX, México" }, "geometry": { "type": "Point", "coordinates": [ -99.027347266673999, 19.534453230800199 ] } },
{ "type": "Feature", "properties": { "Name": "Ciudad Deportiva", "description": "Línea 9. Granjas México, Iztacalco, 08400 Ciudad de México, DF, México" }, "geometry": { "type": "Point", "coordinates": [ -99.0912294, 19.4084529 ] } },
{ "type": "Feature", "properties": { "Name": "Colegio Militar", "description": "Línea 2. Felipe Carrillo Puerto, Popotla, Miguel Hidalgo, 11400 Ciudad de México, DF, México" }, "geometry": { "type": "Point", "coordinates": [ -99.1718835, 19.4489852 ] } },
{ "type": "Feature", "properties": { "Name": "Constitución de 1917", "description": "Línea 8 (Estación Terminal). Los Angeles, Iztapalapa, 09830 Ciudad de México, DF, México" }, "geometry": { "type": "Point", "coordinates": [ -99.0638816, 19.3459804 ] } },
{ "type": "Feature", "properties": { "Name": "Constituyentes", "description": "Línea 7. Daniel Garza, Miguel Hidalgo, 11850 Ciudad de México, DF, México" }, "geometry": { "type": "Point", "coordinates": [ -99.1912866, 19.4119136 ] } },
{ "type": "Feature", "properties": { "Name": "Consulado", "description": "Línea 4, 5. Mártires de Río Blanco, Gustavo A. Madero, 07880 Ciudad de México, DF, México" }, "geometry": { "type": "Point", "coordinates": [ -99.1139048, 19.4580545 ] } },
{ "type": "Feature", "properties": { "Name": "Copilco", "description": "Línea 3. Eje 10 Sur (Copilco), Copilco Universidad, Coyoacán, 04360 Ciudad de México, DF, México" }, "geometry": { "type": "Point", "coordinates": [ -99.1766363, 19.3359178 ] } },
{ "type": "Feature", "properties": { "Name": "Coyoacán", "description": "Línea 3. Xoco, Benito Juárez, 03330 Ciudad de México, DF, México" }, "geometry": { "type": "Point", "coordinates": [ -99.1704994, 19.3614528 ] } },
{ "type": "Feature", "properties": { "Name": "Coyuya", "description": "Línea 8. Eje 3 Oriente (Francisco del Paso y Troncoso), Los Reyes, Iztacalco, 08320 Ciudad de México, DF, México" }, "geometry": { "type": "Point", "coordinates": [ -99.1135132, 19.398551 ] } },
{ "type": "Feature", "properties": { "Name": "Cuatro Caminos", "description": "Línea 2 (Estación Terminal). Ahuizotla, Alce Blanco, 53370 Ciudad de México, MEX, México" }, "geometry": { "type": "Point", "coordinates": [ -99.214788, 19.4634108 ] } },
{ "type": "Feature", "properties": { "Name": "Cuauhtémoc", "description": "Línea 1. Av Chapultepec, Juárez, Cuauhtémoc, 06600 Ciudad de México, DF, México" }, "geometry": { "type": "Point", "coordinates": [ -99.154653, 19.425867 ] } },
{ "type": "Feature", "properties": { "Name": "Cuitláhuac", "description": "Línea 2. México-Tacuba, Popotla, Miguel Hidalgo, 11400 Ciudad de México, DF, México" }, "geometry": { "type": "Point", "coordinates": [ -99.182151, 19.457488 ] } },
{ "type": "Feature", "properties": { "Name": "Culhuacán", "description": "Línea 12. Nota: la localización de la estación es aproximada a esta marca. Iztapalapa, 09800 Ciudad de México, DF, México" }, "geometry": { "type": "Point", "coordinates": [ -99.1075731, 19.3382167 ] } },
{ "type": "Feature", "properties": { "Name": "Deportivo 18 de Marzo", "description": "Línea 3, 6. Tepeyac Insurgentes, Gustavo A. Madero, 07020 Ciudad de México, DF, México" }, "geometry": { "type": "Point", "coordinates": [ -99.1265702, 19.4837877 ] } },
{ "type": "Feature", "properties": { "Name": "Deportivo Oceanía", "description": "Línea B. Av 608 S\/N, San Juan de Aragón 4a Sección, Gustavo A. Madero, 07969 Ciudad de México, DF, México" }, "geometry": { "type": "Point", "coordinates": [ -99.079417, 19.450963 ] } },
{ "type": "Feature", "properties": { "Name": "División del Norte", "description": "Línea 3. Narvarte, Benito Juárez, Ciudad de México, DF, México" }, "geometry": { "type": "Point", "coordinates": [ -99.1591108, 19.3798486 ] } },
{ "type": "Feature", "properties": { "Name": "Doctores", "description": "Línea 8. Obrera, Cuauhtémoc, 06720 Ciudad de México, DF, México" }, "geometry": { "type": "Point", "coordinates": [ -99.1433448, 19.4216528 ] } },
{ "type": "Feature", "properties": { "Name": "Eduardo Molina", "description": "Línea 5. Ciudad de México, DF, México" }, "geometry": { "type": "Point", "coordinates": [ -99.105413, 19.4514081 ] } },
{ "type": "Feature", "properties": { "Name": "Eje Central", "description": "Línea 12. Nota: la localización de la estación es aproximada a esta marca." }, "geometry": { "type": "Point", "coordinates": [ -99.150034189224201, 19.3693022493275 ] } },
{ "type": "Feature", "properties": { "Name": "El Rosario", "description": "Línea 6 y 7 (Estación Terminal). Cultura Norte, El Rosario, Azcapotzalco, 02700 Ciudad de México, DF, México" }, "geometry": { "type": "Point", "coordinates": [ -99.2000628, 19.5046121 ] } },
{ "type": "Feature", "properties": { "Name": "Ermita", "description": "Línea 2.  Calz de Tlalpan, Portales, Benito Juárez, Ciudad de México, DF, México" }, "geometry": { "type": "Point", "coordinates": [ -99.1429317, 19.3619032 ] } },
{ "type": "Feature", "properties": { "Name": "Escuadrón 201", "description": "Línea 8. Granjas San Antonio, Iztapalapa, 09070 Ciudad de México, DF, México" }, "geometry": { "type": "Point", "coordinates": [ -99.1091895, 19.3650309 ] } },
{ "type": "Feature", "properties": { "Name": "Etiopía | Plaza de la Transparencia", "description": "Línea 3. Eje 4 Sur (Xola), Narvarte, Benito Juárez, 03020 Ciudad de México, DF, México" }, "geometry": { "type": "Point", "coordinates": [ -99.1562569, 19.3956264 ] } },
{ "type": "Feature", "properties": { "Name": "Eugenia", "description": "Línea 3. Eje 1 Poniente (Av. Cuauhtémoc), Narvarte, Benito Juárez, 03020 Ciudad de México, DF, México" }, "geometry": { "type": "Point", "coordinates": [ -99.1574532, 19.3855061 ] } },
{ "type": "Feature", "properties": { "Name": "Ferrería", "description": "Línea 6. Eje 4 Norte (Calz. Azcapotzalco La Villa), Santa Catarina, Azcapotzalco, 02700 Ciudad de México, DF, México" }, "geometry": { "type": "Point", "coordinates": [ -99.17382, 19.4908171 ] } },
{ "type": "Feature", "properties": { "Name": "Fray Servando", "description": "Línea 4. El Parque, 15960 Ciudad de México, DF, México" }, "geometry": { "type": "Point", "coordinates": [ -99.1205406, 19.4216528 ] } },
{ "type": "Feature", "properties": { "Name": "Garibaldi", "description": "Línea 8 (Estación Terminal) y Línea B. Eje Central Lázaro Cárdenas, Centro, Cuauhtémoc, 06000 Ciudad de México, DF, México" }, "geometry": { "type": "Point", "coordinates": [ -99.1392624, 19.4427583 ] } },
{ "type": "Feature", "properties": { "Name": "General Anaya", "description": "Línea 2. San Diego Churubusco, Coyoacán, 04120 Ciudad de México, DF, México" }, "geometry": { "type": "Point", "coordinates": [ -99.1449916, 19.353284 ] } },
{ "type": "Feature", "properties": { "Name": "Gómez Farías", "description": "Línea 1. Federal, 15700 Ciudad de México, DF, México" }, "geometry": { "type": "Point", "coordinates": [ -99.0903497, 19.4164114 ] } },
{ "type": "Feature", "properties": { "Name": "Guelatao", "description": "Línea A. Ejército de Oriente Indeco II ISSSTE, Iztapalapa, 09230 Ciudad de México, DF, México" }, "geometry": { "type": "Point", "coordinates": [ -99.0356326, 19.3851316 ] } },
{ "type": "Feature", "properties": { "Name": "Guerrero", "description": "Línea 3, B. Zarco, Guerrero, Cuauhtémoc, 06300 Ciudad de México, DF, México" }, "geometry": { "type": "Point", "coordinates": [ -99.1453725, 19.4451408 ] } },
{ "type": "Feature", "properties": { "Name": "Hangares", "description": "Línea 5. Aeropuerto Int. de La Ciudad de México, 15620 Ciudad de México, DF, México" }, "geometry": { "type": "Point", "coordinates": [ -99.0874207, 19.4240913 ] } },
{ "type": "Feature", "properties": { "Name": "Hidalgo", "description": "Línea 2, 3. Tabacalera, Cuauhtémoc, 06030 Ciudad de México, DF, México" }, "geometry": { "type": "Point", "coordinates": [ -99.1471374, 19.4373152 ] } },
{ "type": "Feature", "properties": { "Name": "Hospital 20 de Noviembre", "description": "Línea 12. Nota: la localización de la estación es aproximada a esta marca." }, "geometry": { "type": "Point", "coordinates": [ -99.171416759490995, 19.372095783993402 ] } },
{ "type": "Feature", "properties": { "Name": "Hospital General", "description": "Línea 3. Doctores, Cuauhtémoc, 06720 Ciudad de México, DF, México" }, "geometry": { "type": "Point", "coordinates": [ -99.1538858, 19.4135984 ] } },
{ "type": "Feature", "properties": { "Name": "Impulsora", "description": "Línea B. De Las Zapatas (Hda. Presillas), Impulsora Popular Avícola, 57100 Ciudad Nezahualcóyotl, MEX, México" }, "geometry": { "type": "Point", "coordinates": [ -99.0488827, 19.4858612 ] } },
{ "type": "Feature", "properties": { "Name": "Indios Verdes", "description": "Línea 3 (Estación Terminal).  Residencial Zacatenco, Gustavo A. Madero, 07369 Ciudad de México, DF, México" }, "geometry": { "type": "Point", "coordinates": [ -99.1194999, 19.4953987 ] } },
{ "type": "Feature", "properties": { "Name": "Instituto del Petróleo", "description": "Línea 5 y 6. Nueva Vallejo, Gustavo A. Madero, 07750 Ciudad de México, MEX, México" }, "geometry": { "type": "Point", "coordinates": [ -99.1449058, 19.4896945 ] } },
{ "type": "Feature", "properties": { "Name": "Insurgentes", "description": "Línea 1. Av Chapultepec, Juárez, Cuauhtémoc, 06600 Ciudad de México, DF, México" }, "geometry": { "type": "Point", "coordinates": [ -99.1627908, 19.4236259 ] } },
{ "type": "Feature", "properties": { "Name": "Insurgentes Sur", "description": "Línea 12. Nota: la localización de la estación es aproximada a esta marca." }, "geometry": { "type": "Point", "coordinates": [ -99.178969860076904, 19.373684838504001 ] } },
{ "type": "Feature", "properties": { "Name": "Isabel la Católica", "description": "Línea 1.  Centro, Cuauhtémoc, 06000 Ciudad de México, DF, México" }, "geometry": { "type": "Point", "coordinates": [ -99.1374546, 19.4265399 ] } },
{ "type": "Feature", "properties": { "Name": "Iztacalco", "description": "Línea 8. Picos Iztacalco 1B y 2a, Iztacalco, 08770 Ciudad de México, DF, México" }, "geometry": { "type": "Point", "coordinates": [ -99.1122043, 19.3886637 ] } },
{ "type": "Feature", "properties": { "Name": "Iztapalapa", "description": "Línea 8. San Lucas, Iztapalapa, 09000 Ciudad de México, DF, México" }, "geometry": { "type": "Point", "coordinates": [ -99.0934932, 19.3578999 ] } },
{ "type": "Feature", "properties": { "Name": "Jamaica", "description": "Línea 4 y 9. Magdalena Mixhuca, 15860 Ciudad de México, DF, México" }, "geometry": { "type": "Point", "coordinates": [ -99.1217637, 19.4091258 ] } },
{ "type": "Feature", "properties": { "Name": "Juanacatlán", "description": "Línea 1. Pedro Antonio de Los Santos, San Miguel Chapultepec, Miguel Hidalgo, 11850 Ciudad de México, DF, México" }, "geometry": { "type": "Point", "coordinates": [ -99.1821724, 19.4129053 ] } },
{ "type": "Feature", "properties": { "Name": "Juárez", "description": "Línea 3. Centro, Cuauhtémoc, 06000 Ciudad de México, DF, México" }, "geometry": { "type": "Point", "coordinates": [ -99.1478777, 19.4332682 ] } },
{ "type": "Feature", "properties": { "Name": "Lagunilla", "description": "Línea B. Barrio de Tepito, Cuauhtémoc, 06200 Ciudad de México, DF, México" }, "geometry": { "type": "Point", "coordinates": [ -99.1313499, 19.4433754 ] } },
{ "type": "Feature", "properties": { "Name": "La Paz", "description": "Línea A. Los Reyes, 56400 Los Reyes, MEX, México" }, "geometry": { "type": "Point", "coordinates": [ -98.9609921, 19.3506572 ] } },
{ "type": "Feature", "properties": { "Name": "La Raza", "description": "Línea 3, 5. Vallejo, Gustavo A. Madero, 07870 Ciudad de México, DF, México" }, "geometry": { "type": "Point", "coordinates": [ -99.1369236, 19.4702742 ] } },
{ "type": "Feature", "properties": { "Name": "La Viga", "description": "Línea 8. Asturias, Cuauhtémoc, 06850 Ciudad de México, DF, México" }, "geometry": { "type": "Point", "coordinates": [ -99.1262913, 19.4065657 ] } },
{ "type": "Feature", "properties": { "Name": "La Villa | Basílica de Guadalupe", "description": "Línea 6. Aragón La Villa (Aragón), Gustavo A. Madero, 07000 Ciudad de México, DF, México" }, "geometry": { "type": "Point", "coordinates": [ -99.1179228, 19.4815524 ] } },
{ "type": "Feature", "properties": { "Name": "Lázaro Cárdenas", "description": "Línea 9. Buenos Aires, Cuauhtémoc, 06780 Ciudad de México, DF, México" }, "geometry": { "type": "Point", "coordinates": [ -99.1448736, 19.407021 ] } },
{ "type": "Feature", "properties": { "Name": "Lindavista", "description": "Línea 6. Gustavo A. Madero, 07300 Ciudad de México, DF, México" }, "geometry": { "type": "Point", "coordinates": [ -99.1346973, 19.4877576 ] } },
{ "type": "Feature", "properties": { "Name": "Lomas Estrella", "description": "Línea 12. Nota: la localización de la estación es aproximada a esta marca." }, "geometry": { "type": "Point", "coordinates": [ -99.097731113433795, 19.3224426830973 ] } },
{ "type": "Feature", "properties": { "Name": "Los Reyes", "description": "Línea A. 56400 Los Reyes, MEX, México" }, "geometry": { "type": "Point", "coordinates": [ -98.9768708, 19.3590285 ] } },
{ "type": "Feature", "properties": { "Name": "Martin Carrera", "description": "Línea 4, 6 (Estación Terminal).  Eje 1 Oriente F.C. Hidalgo, Villa Gustavo a Madero, Gustavo A. Madero, 07050 Ciudad de México, DF, México" }, "geometry": { "type": "Point", "coordinates": [ -99.1070652, 19.482574 ] } },
{ "type": "Feature", "properties": { "Name": "Misterios", "description": "Línea 5. Vallejo, Gustavo A. Madero, 07870 Ciudad de México, DF, México" }, "geometry": { "type": "Point", "coordinates": [ -99.1307974, 19.4634058 ] } },
{ "type": "Feature", "properties": { "Name": "Morelos", "description": "Línea 4, B. 15270 Ciudad de México, DF, México" }, "geometry": { "type": "Point", "coordinates": [ -99.1182554, 19.4389745 ] } },
{ "type": "Feature", "properties": { "Name": "Niños Heroes", "description": "Línea 3. Doctores, Cuauhtémoc, 06720 Ciudad de México, DF, México" }, "geometry": { "type": "Point", "coordinates": [ -99.1505706, 19.4195583 ] } },
{ "type": "Feature", "properties": { "Name": "Nopalera", "description": "Línea 12. Nota: la localización de la estación es aproximada a esta marca." }, "geometry": { "type": "Point", "coordinates": [ -99.050545692443805, 19.300876084204901 ] } },
{ "type": "Feature", "properties": { "Name": "Obrera", "description": "Línea 8. Doctores, Cuauhtémoc, 06720 Ciudad de México, DF, México" }, "geometry": { "type": "Point", "coordinates": [ -99.1441816, 19.4133303 ] } },
{ "type": "Feature", "properties": { "Name": "Observatorio", "description": "Línea 1 (Estación Terminal).  Central Camionera Poniente, Álvaro Obregón, 01120 Ciudad de México, DF, México" }, "geometry": { "type": "Point", "coordinates": [ -99.2005488, 19.3982501 ] } },
{ "type": "Feature", "properties": { "Name": "Olímpica", "description": "Línea B. Fuentes de Aragón\/valle de Anáhuac, 55210 MEX, México" }, "geometry": { "type": "Point", "coordinates": [ -99.0333796, 19.5213181 ] } },
{ "type": "Feature", "properties": { "Name": "Panteones", "description": "Línea 2. Refinería 18 de Marzo, Miguel Hidalgo, 11219 Ciudad de México, DF, México" }, "geometry": { "type": "Point", "coordinates": [ -99.203158, 19.4587829 ] } },
{ "type": "Feature", "properties": { "Name": "Pantitlán", "description": "Línea 1, 5, 9 y A (Estación Terminal). Pantitlan, Iztacalco, 08100 Ciudad de México, DF, México" }, "geometry": { "type": "Point", "coordinates": [ -99.0722072, 19.4153591 ] } },
{ "type": "Feature", "properties": { "Name": "Parque de los Venados", "description": "Línea 12. Nota: la localización de la estación es aproximada a esta marca." }, "geometry": { "type": "Point", "coordinates": [ -99.155709743499798, 19.370142339062699 ] } },
{ "type": "Feature", "properties": { "Name": "Patriotismo", "description": "Línea 9. Hipódromo, Cuauhtémoc, 06100 Ciudad de México, DF, México" }, "geometry": { "type": "Point", "coordinates": [ -99.1788948, 19.4062317 ] } },
{ "type": "Feature", "properties": { "Name": "Peñón Viejo", "description": "Línea A. Zona Urbana Ejidal Santa Martha Acatitla Sur, Iztapalapa, 09530 Ciudad de México, DF, México" }, "geometry": { "type": "Point", "coordinates": [ -99.0170825, 19.3733205 ] } },
{ "type": "Feature", "properties": { "Name": "Periférico Oriente", "description": "Línea 12. Nota: la localización de la estación es aproximada a esta marca." }, "geometry": { "type": "Point", "coordinates": [ -99.075586795806899, 19.318494081981399 ] } },
{ "type": "Feature", "properties": { "Name": "Pino Suárez", "description": "Línea 1, 2. José María Pino Suárez, Centro, Cuauhtémoc, 06000 Ciudad de México, DF, México" }, "geometry": { "type": "Point", "coordinates": [ -99.132911, 19.4257912 ] } },
{ "type": "Feature", "properties": { "Name": "Polanco", "description": "Línea 7. Av Horacio, Polanco, Miguel Hidalgo, 11550 Ciudad de México, DF, México" }, "geometry": { "type": "Point", "coordinates": [ -99.1910237, 19.4335161 ] } },
{ "type": "Feature", "properties": { "Name": "Puebla", "description": "Línea 9. Granjas México, Iztacalco, 08400 Ciudad de México, DF, México" }, "geometry": { "type": "Point", "coordinates": [ -99.0824747, 19.4072234 ] } },
{ "type": "Feature", "properties": { "Name": "Merced", "description": "Línea 1. Centro, 15100 Ciudad de México, DF, México" }, "geometry": { "type": "Point", "coordinates": [ -99.1246551, 19.4254927 ] } },
{ "type": "Feature", "properties": { "Name": "Mexicaltzingo", "description": "Línea 12. Nota: la localización de la estación es aproximada a esta marca." }, "geometry": { "type": "Point", "coordinates": [ -99.121570587158203, 19.3574291928694 ] } },
{ "type": "Feature", "properties": { "Name": "Miguel Ángel de Quevedo (Av. Universidad)", "description": "Línea 3. Av Universidad, Oxtopulco Universidad, Coyoacán, 04360 Coyacán, DF, México" }, "geometry": { "type": "Point", "coordinates": [ -99.1810191, 19.3468358 ] } },
{ "type": "Feature", "properties": { "Name": "Mixcoac", "description": "Línea 7. Benito Juárez, 03910 Ciudad de México, DF, México" }, "geometry": { "type": "Point", "coordinates": [ -99.1878051, 19.3761645 ] } },
{ "type": "Feature", "properties": { "Name": "Mixiuhca", "description": "Línea 9. Jardín Balbuena, 15900 Ciudad de México, DF, México" }, "geometry": { "type": "Point", "coordinates": [ -99.1128802, 19.4085693 ] } },
{ "type": "Feature", "properties": { "Name": "Moctezuma", "description": "Línea 1. Moctezuma 1a Sección, Ciudad de México, DF, México." }, "geometry": { "type": "Point", "coordinates": [ -99.1102624, 19.4272178 ] } },
{ "type": "Feature", "properties": { "Name": "Muzquiz", "description": "Línea B. Valle de Aragón 3ra Sección, 55280 MEX, México" }, "geometry": { "type": "Point", "coordinates": [ -99.041968, 19.5017045 ] } },
{ "type": "Feature", "properties": { "Name": "Nativitas", "description": "Línea 2. Sobre la Calzada de Tlalpan entre el Eje 5 y el Eje 6 Sur." }, "geometry": { "type": "Point", "coordinates": [ -99.140260219574003, 19.3795146127671 ] } },
{ "type": "Feature", "properties": { "Name": "Nezahualcóyotl", "description": "Línea B. Joyas de Aragón, 57170 Ciudad Nezahualcóyotl, MEX, México" }, "geometry": { "type": "Point", "coordinates": [ -99.0545368, 19.4730559 ] } },
{ "type": "Feature", "properties": { "Name": "Normal", "description": "Línea 2. Un Hogar Para Nosotros, Miguel Hidalgo, 11330 Ciudad de México, DF, México" }, "geometry": { "type": "Point", "coordinates": [ -99.1673774, 19.4447058 ] } },
{ "type": "Feature", "properties": { "Name": "Norte 45", "description": "Línea 6. San Miguel Amantla, Azcapotzalco, 02700 Ciudad de México, DF, México" }, "geometry": { "type": "Point", "coordinates": [ -99.1627693, 19.488683 ] } },
{ "type": "Feature", "properties": { "Name": "Oceanía", "description": "Línea 5 y B. Pensador Mexicano, 15510 Ciudad de México, DF, México" }, "geometry": { "type": "Point", "coordinates": [ -99.0871739, 19.4457529 ] } },
{ "type": "Feature", "properties": { "Name": "Olivos", "description": "Línea 12. Nota: la localización de la estación es aproximada a esta marca." }, "geometry": { "type": "Point", "coordinates": [ -99.0605020523071, 19.3047441060938 ] } },
{ "type": "Feature", "properties": { "Name": "Plaza Aragón", "description": "Línea B. Ciudad y Puerto, 55130 MEX, México" }, "geometry": { "type": "Point", "coordinates": [ -99.0301716, 19.5284976 ] } },
{ "type": "Feature", "properties": { "Name": "Politécnico", "description": "Línea 5. Nueva Industrial Vallejo, Gustavo A. Madero, 07700 Ciudad de México, DF, México" }, "geometry": { "type": "Point", "coordinates": [ -99.1492832, 19.5008499 ] } },
{ "type": "Feature", "properties": { "Name": "Popotla", "description": "Línea 2. México-Tacuba, Popotla, Miguel Hidalgo, 11400 Ciudad de México, DF, México" }, "geometry": { "type": "Point", "coordinates": [ -99.1747749, 19.4521567 ] } },
{ "type": "Feature", "properties": { "Name": "Portales", "description": "Línea 2. Benito Juárez, 03300 Ciudad de México, DF, México" }, "geometry": { "type": "Point", "coordinates": [ -99.1415638, 19.369945 ] } },
{ "type": "Feature", "properties": { "Name": "Potrero", "description": "Línea 3. Insurgentes Norte, Guadalupe Insurgentes, Gustavo A. Madero, 07870 Ciudad de México, DF, México" }, "geometry": { "type": "Point", "coordinates": [ -99.1321707, 19.4769704 ] } },
{ "type": "Feature", "properties": { "Name": "Refinería", "description": "Línea 7. Ff. Cc. Nacionales de México, San Miguel Amantla, Azcapotzalco, 11219 Ciudad de México, DF, México" }, "geometry": { "type": "Point", "coordinates": [ -99.1905999, 19.4700922 ] } },
{ "type": "Feature", "properties": { "Name": "Revolución", "description": "Línea 2. Buenavista, Cuauhtémoc, 06350 Ciudad de México, DF, México" }, "geometry": { "type": "Point", "coordinates": [ -99.1555005, 19.4397232 ] } },
{ "type": "Feature", "properties": { "Name": "Ricardo Flores Magón", "description": "Línea B. Revolución, 15460 Ciudad de México, DF, México" }, "geometry": { "type": "Point", "coordinates": [ -99.1036642, 19.436607 ] } },
{ "type": "Feature", "properties": { "Name": "Río de los Remedios", "description": "Línea B. Valle de Aragón 2da Sección, 57100 Ciudad Nezahualcóyotl, MEX, México" }, "geometry": { "type": "Point", "coordinates": [ -99.0466619, 19.4909688 ] } },
{ "type": "Feature", "properties": { "Name": "Romero Rubio", "description": "Línea B. 15400 Ciudad de México, DF, México" }, "geometry": { "type": "Point", "coordinates": [ -99.0943193, 19.4408057 ] } },
{ "type": "Feature", "properties": { "Name": "Salto del Agua", "description": "Línea 1, 8. Av Arcos de Belén, Centro, Cuauhtémoc, 06720 Ciudad de México, DF, México" }, "geometry": { "type": "Point", "coordinates": [ -99.1422343, 19.4267827 ] } },
{ "type": "Feature", "properties": { "Name": "San Andrés Tomatlán", "description": "Línea 12. Nota: la localización de la estación es aproximada a esta marca. Iztapalapa, Ciudad de México, DF, México" }, "geometry": { "type": "Point", "coordinates": [ -99.1051529, 19.3276583 ] } },
{ "type": "Feature", "properties": { "Name": "San Antonio", "description": "Línea 7. Santa María Nonoalco, Benito Juárez, 03700 Ciudad de México, DF, México" }, "geometry": { "type": "Point", "coordinates": [ -99.1863245, 19.3847724 ] } },
{ "type": "Feature", "properties": { "Name": "San Antonio Abad", "description": "Línea 2. Tránsito, Cuauhtémoc, 06820 Ciudad de México, DF, México." }, "geometry": { "type": "Point", "coordinates": [ -99.1345682, 19.416019 ] } },
{ "type": "Feature", "properties": { "Name": "San Cosme", "description": "Línea 2. Ribera de San Cosme, Santa María La Ribera, Cuauhtémoc, 06470 Ciudad de México, DF, México" }, "geometry": { "type": "Point", "coordinates": [ -99.1611063, 19.441782 ] } },
{ "type": "Feature", "properties": { "Name": "San Joaquín", "description": "Línea 7. Cuauhtémoc Pensil, Miguel Hidalgo, 11490 Ciudad de México, DF, México" }, "geometry": { "type": "Point", "coordinates": [ -99.1918445, 19.4458136 ] } },
{ "type": "Feature", "properties": { "Name": "San Juan de Letrán", "description": "Línea 8. Centro, Cuauhtémoc, 06000 Ciudad de México, DF, México" }, "geometry": { "type": "Point", "coordinates": [ -99.141494, 19.4312447 ] } },
{ "type": "Feature", "properties": { "Name": "San Lázaro", "description": "Línea 1, B. 7 de Julio, 15390 Ciudad de México, DF, México" }, "geometry": { "type": "Point", "coordinates": [ -99.1148007, 19.4302734 ] } },
{ "type": "Feature", "properties": { "Name": "San Pedro de los Pinos", "description": "Línea 7. San Pedro de Los Pinos, Benito Juárez, 03800 Ciudad de México, DF, México" }, "geometry": { "type": "Point", "coordinates": [ -99.1860509, 19.3912798 ] } },
{ "type": "Feature", "properties": { "Name": "Santa Anita", "description": "Línea 4 (Estación Terminal) y Línea 8. Iztacalco, 08300 Ciudad de México, DF, México" }, "geometry": { "type": "Point", "coordinates": [ -99.1216993, 19.4027355 ] } },
{ "type": "Feature", "properties": { "Name": "Santa María", "description": "Línea A." }, "geometry": { "type": "Point", "coordinates": [ -98.995227813720703, 19.361356608182302 ] } },
{ "type": "Feature", "properties": { "Name": "Sevilla", "description": "Línea 1. Roma Norte, Cuauhtémoc, 06700 Ciudad de México, DF, México" }, "geometry": { "type": "Point", "coordinates": [ -99.1706067, 19.421926 ] } },
{ "type": "Feature", "properties": { "Name": "Tacubaya", "description": "Línea 1, 7, 9. Miguel Hidalgo, 11870 Ciudad de México, DF, México" }, "geometry": { "type": "Point", "coordinates": [ -99.187097, 19.4031605 ] } },
{ "type": "Feature", "properties": { "Name": "Tacuba", "description": "Línea 2, 7. México-tacuba, Tacuba, Miguel Hidalgo, 11410 Ciudad de México, DF, México" }, "geometry": { "type": "Point", "coordinates": [ -99.1870825, 19.4586984 ] } },
{ "type": "Feature", "properties": { "Name": "Tasqueña", "description": "Línea 2 (Estación Terminal). Talleres de mantenimiento del metro \"Taxqueña\", Campestre Churubusco, Coyoacán, 04200 Ciudad de México, DF, México." }, "geometry": { "type": "Point", "coordinates": [ -99.142524, 19.3441988 ] } },
{ "type": "Feature", "properties": { "Name": "Tlatelolco", "description": "Línea 3. Zoltan Kodaly, Tlatelolco, Cuauhtémoc, 06900 Ciudad de México, DF, México" }, "geometry": { "type": "Point", "coordinates": [ -99.1427922, 19.4551006 ] } },
{ "type": "Feature", "properties": { "Name": "Talismán", "description": "Línea 4. Granjas Modernas, Gustavo A. Madero, 07460 Ciudad de México, DF, México" }, "geometry": { "type": "Point", "coordinates": [ -99.1080093, 19.4743304 ] } },
{ "type": "Feature", "properties": { "Name": "Tecnológico", "description": "Línea B. Sor Juana Inés de La Cruz, Fuentes de Aragón\/valle de Anáhuac, 55210 MEX, México" }, "geometry": { "type": "Point", "coordinates": [ -99.0359974, 19.5153316 ] } },
{ "type": "Feature", "properties": { "Name": "Tepalcates", "description": "Línea A. Ejército Constitucionalista I II y ÌII, Iztapalapa, 09220 Ciudad de México, DF, México" }, "geometry": { "type": "Point", "coordinates": [ -99.0463722, 19.3912849 ] } },
{ "type": "Feature", "properties": { "Name": "Tepito", "description": "Línea B. Centro, Cuauhtémoc, 06000 Ciudad de México, DF, México" }, "geometry": { "type": "Point", "coordinates": [ -99.1233194, 19.4425205 ] } },
{ "type": "Feature", "properties": { "Name": "Terminal Aérea", "description": "Línea 5. Aeropuerto Int. de La Ciudad de México, 15620 Ciudad de México, DF, México." }, "geometry": { "type": "Point", "coordinates": [ -99.0876889, 19.4338247 ] } },
{ "type": "Feature", "properties": { "Name": "Tezonco", "description": "Línea 12. Nota: la localización de la estación es aproximada a esta marca." }, "geometry": { "type": "Point", "coordinates": [ -99.069814682006793, 19.309523315706699 ] } },
{ "type": "Feature", "properties": { "Name": "Tezozomoc", "description": "Línea 6. San Miguel Amantla, Azcapotzalco, 02700 Ciudad de México, DF, México" }, "geometry": { "type": "Point", "coordinates": [ -99.1962701, 19.495065 ] } },
{ "type": "Feature", "properties": { "Name": "Tlaltenco", "description": "Línea 12. Nota: la localización de la estación es aproximada a esta marca." }, "geometry": { "type": "Point", "coordinates": [ -99.024024009704604, 19.2980205748147 ] } },
{ "type": "Feature", "properties": { "Name": "Tláhuac", "description": "Línea 12 (Estación Terminal). Nota: la localización de la estación es aproximada a esta marca." }, "geometry": { "type": "Point", "coordinates": [ -99.017415046691895, 19.290689180673802 ] } },
{ "type": "Feature", "properties": { "Name": "UAM-I", "description": "Línea 8. Los Angeles, Iztapalapa, 09830 Ciudad de México, DF, México" }, "geometry": { "type": "Point", "coordinates": [ -99.0747285, 19.3507281 ] } },
{ "type": "Feature", "properties": { "Name": "Universidad", "description": "Línea 3 (Estación Terminal). Av Antonio Delfin Madrigal, Coyoacán, Ciudad de México, DF, México" }, "geometry": { "type": "Point", "coordinates": [ -99.1739595, 19.3244574 ] } },
{ "type": "Feature", "properties": { "Name": "Valle Gómez", "description": "Línea 5. 7 de Noviembre, 07840 Ciudad de México, DF, México" }, "geometry": { "type": "Point", "coordinates": [ -99.1193229, 19.458798 ] } },
{ "type": "Feature", "properties": { "Name": "Vallejo", "description": "Línea 6. Eje 4 Norte (Calz. Azcapotzalco La Villa), San Andrés de Las Salinas, Azcapotzalco, 02700 Ciudad de México, DF, México" }, "geometry": { "type": "Point", "coordinates": [ -99.1555542, 19.4903266 ] } },
{ "type": "Feature", "properties": { "Name": "Velódromo", "description": "Línea 9. Jardín Balbuena, 15900 Ciudad de México, DF, México" }, "geometry": { "type": "Point", "coordinates": [ -99.1030419, 19.4085693 ] } },
{ "type": "Feature", "properties": { "Name": "Viaducto", "description": "Línea 2. Calz de Tlalpan, Alamos, Benito Juárez, 03400 Ciudad de México, DF, México" }, "geometry": { "type": "Point", "coordinates": [ -99.1368914, 19.4008785 ] } },
{ "type": "Feature", "properties": { "Name": "Villa de Aragón", "description": "Línea B. Av 608, San Juan de Aragón 4a Sección, Gustavo A. Madero, 07979 Ciudad de México, DF, México" }, "geometry": { "type": "Point", "coordinates": [ -99.0613174, 19.4616861 ] } },
{ "type": "Feature", "properties": { "Name": "Villa de Cortés", "description": "Línea 2. Calz de Tlalpan, Josefa Ortiz de Domínguez, Benito Juárez, 03430 Ciudad de México, DF, México" }, "geometry": { "type": "Point", "coordinates": [ -99.1390371, 19.3874695 ] } },
{ "type": "Feature", "properties": { "Name": "Viveros", "description": "Línea 3. Axotla, Álvaro Obregón, 01030 Ciudad de México, DF, México" }, "geometry": { "type": "Point", "coordinates": [ -99.1760355, 19.3537143 ] } },
{ "type": "Feature", "properties": { "Name": "Xola", "description": "Línea 2. Alamos, Benito Juárez, 03400 Ciudad de México, DF, México" }, "geometry": { "type": "Point", "coordinates": [ -99.1378087, 19.3952064 ] } },
{ "type": "Feature", "properties": { "Name": "Zapata", "description": "Línea 3. Sta Cruz Atoyac, Benito Juárez, 03100 Ciudad de México, DF, México" }, "geometry": { "type": "Point", "coordinates": [ -99.1649204, 19.3707294 ] } },
{ "type": "Feature", "properties": { "Name": "Zapotitlán", "description": "Línea 12. Nota: la localización de la estación es aproximada a esta marca." }, "geometry": { "type": "Point", "coordinates": [ -99.041726589202895, 19.2992559431495 ] } },
{ "type": "Feature", "properties": { "Name": "Zaragoza", "description": "Línea 1. Calz Ignacio Zaragoza, Puebla, 15730 Ciudad de México, DF, México." }, "geometry": { "type": "Point", "coordinates": [ -99.0823781, 19.412288 ] } },
{ "type": "Feature", "properties": { "Name": "Zócalo", "description": "Línea 2. Centro, Cuauhtémoc, 06000 Ciudad de México, DF, México" }, "geometry": { "type": "Point", "coordinates": [ -99.1329861, 19.4332227 ] } }
]
}
