[{"id":"1","district":"CUA","lon":"-99.1678091","lat":"19.4335714","bikes":"21","slots":"5","zip":"06500","address":"001 - R\u00edo Sena-R\u00edo Balsas","addressNumber":"S\/N","nearbyStations":"3,8,85","status":"OPN","name":"1 RIO SENA-RIO BALSAS","stationType":"BIKE,TPV"},{"id":"2","district":"CUA","lon":"-99.171695","lat":"19.431386","bikes":"4","slots":"7","zip":"06500","address":"002 - R\u00edo Guadalquivir - R\u00edo Balsas","addressNumber":"S\/N","nearbyStations":"1,5","status":"OPN","name":"2 RIO GUADALQUIVIR-RIO BALSAS","stationType":"BIKE"},{"id":"3","district":"1","lon":"-99.158668","lat":"19.431655","bikes":"16","slots":"18","zip":"06500","address":"003 - Reforma - Insurgentes","addressNumber":"S\/N","nearbyStations":"8,20,86","status":"OPN","name":"3 REFORMA-INSURGENTES","stationType":"BIKE,TPV"},{"id":"4","district":"CUA","lon":"-99.171713","lat":"19.428309","bikes":"3","slots":"12","zip":"06500","address":"004 - R\u00edo Nilo - R\u00edo Panuco","addressNumber":"S\/N","nearbyStations":"5,8,9,10","status":"OPN","name":"4 RIO NILO-RIO PANUCO","stationType":"BIKE"},{"id":"5","district":"CUA","lon":"-99.169363","lat":"19.42972","bikes":"2","slots":"10","zip":"06500","address":"005 - R\u00edo P\u00e1nuco R\u00edo Tiber","addressNumber":"S\/N","nearbyStations":"2,4,9,10","status":"OPN","name":"5 RIO PANUCO-RIO TIBER","stationType":"BIKE"},{"id":"6","district":"CUA","lon":"-99.166959","lat":"19.430922","bikes":"7","slots":"6","zip":"06500","address":"006 - R\u00edo P\u00e1nuco - R\u00edo Sena","addressNumber":"S\/N","nearbyStations":"1,3,5,10","status":"OPN","name":"6 RIO PANUCO-RIO SENA","stationType":"BIKE"},{"id":"7","district":"CUA","lon":"-99.175166","lat":"19.425468","bikes":"20","slots":"4","zip":"06500","address":"007 - R\u00edo Elba - R\u00edo Lerma","addressNumber":"S\/N","nearbyStations":"13,14,21,28","status":"OPN","name":"7 RIO ELBA-RIO LERMA","stationType":"BIKE"},{"id":"8","district":"TAB","lon":"-99.158317","lat":"19.431141","bikes":"5","slots":"7","zip":"06500","address":"008 - Reforma - General Prim","addressNumber":"S\/N","nearbyStations":"3,20,86","status":"OPN","name":"8 REFORMA-GENERAL PRIM","stationType":"BIKE"},{"id":"9","district":"CUA","lon":"-99.169918","lat":"19.428009","bikes":"7","slots":"17","zip":"06500","address":"009 - R\u00edo Guadalquivir - R\u00edo Lerma","addressNumber":"S\/N","nearbyStations":"4,5,8,16","status":"OPN","name":"9 RIO GUADALQUIVIR-RIO LERMA","stationType":"BIKE"},{"id":"10","district":"TAB","lon":"-99.154752","lat":"19.433321","bikes":"21","slots":"13","zip":"06500","address":"010 - Reforma - Ram\u00edrez","addressNumber":"S\/N","nearbyStations":"26","status":"OPN","name":"10 REFORMA-RAMIREZ","stationType":"BIKE,TPV"},{"id":"11","district":"CUA","lon":"-99.163593","lat":"19.430992","bikes":"8","slots":"7","zip":"06500","address":"011 - R\u00edo Amazonas - Rio Lerma","addressNumber":"S\/N","nearbyStations":"3,12,19","status":"OPN","name":"11 RIO AMAZONAS-RIO LERMA","stationType":"BIKE"},{"id":"12","district":"1","lon":"-99.161597","lat":"19.432313","bikes":"8","slots":"7","zip":"06500","address":"012 - R\u00edo Lerma - Villalongin","addressNumber":"S\/N","nearbyStations":"11,19,20,85","status":"OPN","name":"12 RIO LERMA-VILLALONGIN","stationType":"BIKE"},{"id":"13","district":"1","lon":"-99.17231","lat":"19.42502","bikes":"32","slots":"2","zip":"06500","address":"013 - Reforma - Rio Mississippi","addressNumber":"S\/N","nearbyStations":"7,14,21","status":"OPN","name":"13 REFORMA-RIO MISSISSIPPI","stationType":"BIKE,TPV"},{"id":"14","district":"CUA","lon":"-99.173261","lat":"19.424768","bikes":"22","slots":"14","zip":"06500","address":"014 - Reforma - Rio de Plata","addressNumber":"S\/N","nearbyStations":"13,21,22,28","status":"OPN","name":"14 REFORMA-RIO DE PLATA","stationType":"BIKE"},{"id":"15","district":"CUA","lon":"-99.171567","lat":"19.425477","bikes":"9","slots":"15","zip":"06500","address":"015 - Reforma - Rio Mississippi","addressNumber":"S\/N","nearbyStations":"14,16,22,23","status":"OPN","name":"15 REFORMA-RIO MISSISSIPPI","stationType":"BIKE,TPV"},{"id":"16","district":"1","lon":"-99.168242","lat":"19.427226","bikes":"9","slots":"23","zip":"06500","address":"016 - Reforma - Rio Tiber","addressNumber":"S\/N","nearbyStations":"9,23,24","status":"OPN","name":"16 REFORMA-R\u00cdO TIBER","stationType":"BIKE"},{"id":"17","district":"1","lon":"-99.167125","lat":"19.427501","bikes":"14","slots":"13","zip":"06500","address":"017 - Reforma - Rio Tiber","addressNumber":"S\/N","nearbyStations":"16,18,25","status":"OPN","name":"17 REFORMA-RIO TIBER","stationType":"BIKE,TPV"},{"id":"18","district":"CUA","lon":"-99.164176","lat":"19.42888","bikes":"0","slots":"34","zip":"06500","address":"018 - Reforma - R\u00edo Rhin","addressNumber":"S\/N","nearbyStations":"17,25","status":"OPN","name":"18 REFORMA-RIO RHIN","stationType":"BIKE,TPV"},{"id":"19","district":"1","lon":"-99.163377","lat":"19.429241","bikes":"0","slots":"24","zip":"06500","address":"019 - Reforma - R\u00edo Rhin","addressNumber":"S\/N","nearbyStations":"12,20,27","status":"OPN","name":"19 REFORMA-RIO RHIN","stationType":"BIKE,TPV"},{"id":"20","district":"CUA","lon":"-99.160206","lat":"19.430964","bikes":"3","slots":"19","zip":"06500","address":"020 - Reforma- Rio Tamesis","addressNumber":"S\/N","nearbyStations":"12,19,27","status":"OPN","name":"20 REFORMA-RIO TAMESIS","stationType":"BIKE"},{"id":"21","district":"1","lon":"-99.17206","lat":"19.42472","bikes":"1","slots":"22","zip":"06500","address":"021 - Reforma - Dublin","addressNumber":"S\/N","nearbyStations":"7,13,14,28","status":"OPN","name":"21 REFORMA-DUBLIN","stationType":"BIKE,TPV"},{"id":"22","district":"JUA","lon":"-99.172575","lat":"19.424375","bikes":"14","slots":"22","zip":"06500","address":"022 - Reforma - Manchester","addressNumber":"S\/N","nearbyStations":"14,15,23,28","status":"OPN","name":"22 REFORMA-MANCHESTER","stationType":"BIKE,TPV"},{"id":"23","district":"JUA","lon":"-99.17105","lat":"19.42517","bikes":"16","slots":"20","zip":"06500","address":"023 - Reforma - Praga","addressNumber":"S\/N","nearbyStations":"15,16,22","status":"OPN","name":"23 REFORMA-PRAGA","stationType":"BIKE"},{"id":"24","district":"JUA","lon":"-99.16822","lat":"19.42647","bikes":"3","slots":"23","zip":"06500","address":"024 - Reforma- Varsovia","addressNumber":"S\/N","nearbyStations":"16,23","status":"OPN","name":"24 REFORMA-VARSOVIA","stationType":"BIKE,TPV"},{"id":"25","district":"JUA","lon":"-99.166662","lat":"19.427317","bikes":"6","slots":"21","zip":"06500","address":"025 - Reforma - Estocolmo","addressNumber":"S\/N","nearbyStations":"17,18","status":"OPN","name":"25 REFORMA-ESTOCOLMO","stationType":"BIKE"},{"id":"26","district":"JUA","lon":"-99.154726","lat":"19.432685","bikes":"8","slots":"10","zip":"06500","address":"026 - Reforma - Versalles","addressNumber":"S\/N","nearbyStations":"10","status":"OPN","name":"26 REFORMA-VERSALLES","stationType":"BIKE,TPV"},{"id":"27","district":"JUA","lon":"-99.162614","lat":"19.429115","bikes":"0","slots":"34","zip":"06500","address":"027 - Reforma- Havre","addressNumber":"S\/N","nearbyStations":"19,26,31","status":"OPN","name":"27 REFORMA-HAVRE","stationType":"BIKE,TPV"},{"id":"28","district":"JUA","lon":"-99.172494","lat":"19.423542","bikes":"9","slots":"17","zip":"06500","address":"028 - Toledo- Tokio","addressNumber":"S\/N","nearbyStations":"14,21,22","status":"OPN","name":"28 TOLEDO-TOKIO","stationType":"BIKE"},{"id":"29","district":"CEN","lon":"-99.149939","lat":"19.434913","bikes":"13","slots":"23","zip":"06500","address":"029 - Reforma - Bucareli","addressNumber":"S\/N","nearbyStations":"41","status":"OPN","name":"29 REFORMA-BUCARELI","stationType":"BIKE,TPV"},{"id":"30","district":"JUA","lon":"-99.164323","lat":"19.426442","bikes":"14","slots":"21","zip":"06500","address":"030 - Hamburgo - Genova","addressNumber":"S\/N","nearbyStations":"26,34,35","status":"OPN","name":"30 HAMBURGO-GENOVA","stationType":"BIKE,TPV"},{"id":"31","district":"JUA","lon":"-99.161193","lat":"19.427838","bikes":"12","slots":"24","zip":"06500","address":"031 - Hamburgo - Insurgentes","addressNumber":"S\/N","nearbyStations":"19,27,30","status":"OPN","name":"31 HAMBURGO-INSURGENTES","stationType":"BIKE"},{"id":"32","district":"JUA","lon":"-99.169922","lat":"19.422705","bikes":"22","slots":"12","zip":"06500","address":"032 - Londres - Sevilla","addressNumber":"S\/N","nearbyStations":"22,38,39","status":"OPN","name":"32 LONDRES-SEVILLA","stationType":"BIKE"},{"id":"33","district":"JUA","lon":"-99.166431","lat":"19.424234","bikes":"10","slots":"14","zip":"06500","address":"033 - Londres - Florencia","addressNumber":"S\/N","nearbyStations":"34,35,449","status":"OPN","name":"E33 LONDRES-FLORENCIA","stationType":"ELECTRIC_BIKE"},{"id":"34","district":"JUA","lon":"-99.163331","lat":"19.424725","bikes":"6","slots":"27","zip":"05600","address":"034 - Liverpool - Genova","addressNumber":"S\/N","nearbyStations":"30,33,35","status":"OPN","name":"34 LIVERPOOL-GENOVA","stationType":"BIKE"},{"id":"35","district":"JUA","lon":"-99.163292","lat":"19.424674","bikes":"21","slots":"13","zip":"06500","address":"035 - Liverpool - Genova","addressNumber":"S\/N","nearbyStations":"30,34,40","status":"OPN","name":"35 LIVERPOOL-GENOVA","stationType":"BIKE,TPV"},{"id":"36","district":"1","lon":"-99.175778","lat":"19.419725","bikes":"17","slots":"16","zip":"06140","address":"036 - Puebla - Veracruz","addressNumber":"S\/N","nearbyStations":"37,41,44","status":"OPN","name":"36 PUEBLA-VERACRUZ","stationType":"BIKE,TPV"},{"id":"37","district":"R-N","lon":"-99.172676","lat":"19.420419","bikes":"6","slots":"15","zip":"06700","address":"037 - Guadalajara - Puebla","addressNumber":"S\/N","nearbyStations":"28,38,45","status":"OPN","name":"37 GUADALAJARA-PUEBLA","stationType":"BIKE"},{"id":"38","district":"R-N","lon":"-99.171407","lat":"19.420801","bikes":"14","slots":"21","zip":"06700","address":"038 - Cozumel - PUEBLA","addressNumber":"S\/N","nearbyStations":"28,32,37","status":"OPN","name":"38 COZUMEL-PUEBLA","stationType":"BIKE"},{"id":"39","district":"R-N","lon":"-99.16694","lat":"19.421759","bikes":"9","slots":"12","zip":"06700","address":"039 - Puebla - Medell\u00edn","addressNumber":"S\/N","nearbyStations":"33,42,48","status":"OPN","name":"39 PUEBLA-MEDELL\u00cdN","stationType":"BIKE"},{"id":"40","district":"R-N","lon":"-99.164297","lat":"19.42223","bikes":"14","slots":"9","zip":"06700","address":"040 - Oaxaca - Puebla","addressNumber":"S\/N","nearbyStations":"35,42","status":"OPN","name":"40 OAXACA-PUEBLA","stationType":"BIKE"},{"id":"41","district":"1","lon":"-99.150137","lat":"19.435637","bikes":"6","slots":"30","zip":"06700","address":"041 - Reforma - Av. de la Rep\u00fablica","addressNumber":"S\/N","nearbyStations":"29","status":"OPN","name":"41 REFORMA-AV. DE LA REPUBLICA","stationType":"BIKE,TPV"},{"id":"42","district":"R-N","lon":"-99.168238","lat":"19.420472","bikes":"3","slots":"20","zip":"06700","address":"042 - Sinaloa - Valladolid","addressNumber":"S\/N","nearbyStations":"39,47,48,51","status":"OPN","name":"42 SINALOA-VALLADOLID","stationType":"BIKE"},{"id":"43","district":"CEN","lon":"-99.146063","lat":"19.435228","bikes":"7","slots":"25","zip":"06700","address":"043 - Revillagigedo - Ju\u00e1rez","addressNumber":"S\/N","nearbyStations":"52,82","status":"OPN","name":"43 JUAREZ-REVILLAGIGEDO","stationType":"BIKE,TPV"},{"id":"44","district":"R-N","lon":"-99.174761","lat":"19.418057","bikes":"15","slots":"9","zip":"06140","address":"044 - Durango - Veracruz","addressNumber":"S\/N","nearbyStations":"36,41,49,50","status":"OPN","name":"44 DURANGO-VERACRUZ","stationType":"BIKE"},{"id":"45","district":"R-N","lon":"-99.172127","lat":"19.418649","bikes":"1","slots":"34","zip":"06700","address":"045 - Durango - Sonora","addressNumber":"S\/N","nearbyStations":"37,38,41,46","status":"OPN","name":"45 DURANGO-SONORA","stationType":"BIKE,TPV"},{"id":"46","district":"R-N","lon":"-99.169732","lat":"19.419214","bikes":"27","slots":"8","zip":"06700","address":"046 - Durango - Salamanca","addressNumber":"S\/N","nearbyStations":"42,45,51,54","status":"OPN","name":"46 DURANGO-SALAMANCA","stationType":"BIKE"},{"id":"47","district":"1","lon":"-99.166299","lat":"19.419515","bikes":"8","slots":"16","zip":"06700","address":"047 - Glorieta Cibeles - Oaxaca","addressNumber":"S\/N","nearbyStations":"42,51,56","status":"OPN","name":"47 GLORIETA CIBELES-OAXACA","stationType":"BIKE,TPV"},{"id":"48","district":"CEN","lon":"-99.146557","lat":"19.433686","bikes":"3","slots":"9","zip":"06700","address":"048 - Independencia - Azueta","addressNumber":"S\/N","nearbyStations":"43,82","status":"OPN","name":"48 INDEPENDENCIA-AZUETA","stationType":"BIKE"},{"id":"49","district":"CON","lon":"-99.175704","lat":"19.416712","bikes":"26","slots":"10","zip":"06140","address":"049 - Mazatl\u00e1n - Juan de la Barrera","addressNumber":"S\/N","nearbyStations":"41,44,50,60","status":"OPN","name":"49 MAZATLAN-JUAN DE LA BARRERA","stationType":"BIKE"},{"id":"50","district":"CON","lon":"-99.173648","lat":"19.416938","bikes":"22","slots":"4","zip":"06140","address":"050 - Cuernavaca - Veracruz","addressNumber":"S\/N","nearbyStations":"44,49,57,58","status":"OPN","name":"50 CUERNAVACA-VERACRUZ","stationType":"BIKE"},{"id":"51","district":"R-N","lon":"-99.168248","lat":"19.417995","bikes":"9","slots":"18","zip":"06700","address":"051 - Colima - Oaxaca","addressNumber":"S\/N","nearbyStations":"46,47,58","status":"OPN","name":"51 COLIMA-OAXACA","stationType":"BIKE"},{"id":"52","district":"CEN","lon":"-99.142039","lat":"19.436236","bikes":"21","slots":"0","zip":"06140","address":"052 - Dolores - Ju\u00e1rez","addressNumber":"S\/N","nearbyStations":"43","status":"OPN","name":"52 HIDALGO-TRUJANO","stationType":"BIKE,TPV"},{"id":"53","district":"CON","lon":"-99.178433","lat":"19.414773","bikes":"3","slots":"12","zip":"06140","address":"053 - Fernando Montes de Oca - Tula","addressNumber":"S\/N","nearbyStations":"52,60,65,66","status":"OPN","name":"53 FERNANDO MONTES DE OCA-TULA","stationType":"BIKE"},{"id":"54","district":"CON","lon":"-99.170825","lat":"19.416215","bikes":"28","slots":"8","zip":"06700","address":"054 - Parque Espa\u00f1a - Sonora","addressNumber":"S\/N","nearbyStations":"50,51,58,63","status":"OPN","name":"54 PARQUE ESPA\u00d1A-SONORA","stationType":"BIKE,TPV"},{"id":"55","district":"1","lon":"-99.138064","lat":"19.434356","bikes":"0","slots":"15","zip":"06700","address":"055 - 5 de Mayo - Bol\u00edvar","addressNumber":"S\/N","nearbyStations":"65,87,88","status":"CLS","name":"55 5 DE MAYO-BOLIVAR","stationType":"BIKE,TPV"},{"id":"56","district":"R-N","lon":"-99.165702","lat":"19.416959","bikes":"32","slots":"4","zip":"06700","address":"056 - Alvaro Obreg\u00f3n - Medellin","addressNumber":"S\/N","nearbyStations":"47,51,59","status":"OPN","name":"56 ALVARO OBREGON-MEDELLIN","stationType":"BIKE"},{"id":"57","district":"1","lon":"-99.17495","lat":"19.414903","bikes":"9","slots":"1","zip":"06140","address":"057 - Cuernavaca - Juan Escutia","addressNumber":"S\/N","nearbyStations":"48,49,50,62","status":"OPN","name":"57 CUERNAVACA-JUAN ESCUTIA","stationType":"BIKE"},{"id":"58","district":"CON","lon":"-99.171793","lat":"19.41568","bikes":"12","slots":"15","zip":"06140","address":"058 - Parque Espa\u00f1a - Juan de la Barrera","addressNumber":"S\/N","nearbyStations":"50,54,61,63","status":"OPN","name":"58 PARQUE ESPA\u00d1A-JUAN DE LA BARRERA","stationType":"BIKE"},{"id":"59","district":"HIP","lon":"-99.166661","lat":"19.415121","bikes":"22","slots":"14","zip":"06100","address":"059 - Popocat\u00e9petl - Amsterdam","addressNumber":"S\/N","nearbyStations":"56,61,64","status":"OPN","name":"59 POPOCATEPETL-AMSTERDAM","stationType":"BIKE"},{"id":"60","district":"CON","lon":"-99.177123","lat":"19.414191","bikes":"17","slots":"19","zip":"06140","address":"060 - Mazatl\u00e1n - Fernando Montes de Oca","addressNumber":"S\/N","nearbyStations":"23,52,62,66","status":"OPN","name":"60 MAZATLAN-FERNANDO MONTES DE OCA","stationType":"BIKE"},{"id":"61","district":"HIP","lon":"-99.169525","lat":"19.413742","bikes":"7","slots":"29","zip":"06100","address":"061 - Avenida M\u00e9xico - Sonora","addressNumber":"S\/N","nearbyStations":"59,63,64,70","status":"OPN","name":"61 AVENIDA MEXICO-SONORA","stationType":"BIKE,TPV"},{"id":"62","district":"CON","lon":"-99.175202","lat":"19.413322","bikes":"12","slots":"6","zip":"06140","address":"062 - Fernando Montes de Oca - Amatlan","addressNumber":"S\/N","nearbyStations":"67,71,74","status":"OPN","name":"62 FERNANDO MONTES DE OCA-AMATLAN","stationType":"BIKE"},{"id":"63","district":"1","lon":"-99.171531","lat":"19.413681","bikes":"18","slots":"18","zip":"06100","address":"063 - Nuevo Le\u00f3n - Laredo","addressNumber":"S\/N","nearbyStations":"70,76,77","status":"OPN","name":"63 NUEVO LEON- LAREDO","stationType":"BIKE,TPV"},{"id":"64","district":"HIP","lon":"-99.166986","lat":"19.412877","bikes":"10","slots":"26","zip":"06100","address":"064 - Sonora - Amsterdam","addressNumber":"S\/N","nearbyStations":"59,61,69","status":"OPN","name":"64 SONORA-AMSTERDAM","stationType":"BIKE"},{"id":"65","district":"CEN","lon":"-99.139906","lat":"19.436142","bikes":"2","slots":"16","zip":"06170","address":"065 - Marconi - Tacuba","addressNumber":"S\/N","nearbyStations":"52","status":"OPN","name":"65 MARCONI-TACUBA","stationType":"BIKE,TPV"},{"id":"66","district":"1","lon":"-99.178666","lat":"19.411402","bikes":"9","slots":"18","zip":"06170","address":"066 - Mazatl\u00e1n - Francisco Marquez","addressNumber":"S\/N","nearbyStations":"65,72","status":"OPN","name":"66 MAZATLAN-FRANCISCO MARQUEZ","stationType":"BIKE"},{"id":"67","district":"CON","lon":"-99.17588","lat":"19.411797","bikes":"4","slots":"19","zip":"06170","address":"067 - Vicente Su\u00e1rez - Michoacan","addressNumber":"S\/N","nearbyStations":"62,66,68","status":"OPN","name":"67 VICENTE SUAREZ-MICHOACAN","stationType":"BIKE"},{"id":"68","district":"CON","lon":"-99.17406","lat":"19.411556","bikes":"13","slots":"17","zip":"06170","address":"068 - Tamaulipas - Michoacan","addressNumber":"S\/N","nearbyStations":"67,71,74","status":"OPN","name":"68 TAMAULIPAS-MICHOACAN","stationType":"BIKE,TPV"},{"id":"69","district":"HIP","lon":"-99.168111","lat":"19.410733","bikes":"4","slots":"17","zip":"06100","address":"069 - Michoac\u00e1n - Amsterdam","addressNumber":"S\/N","nearbyStations":"70,76,77","status":"OPN","name":"69 MICHOACAN-AMSTERDAM","stationType":"BIKE"},{"id":"70","district":"1","lon":"-99.169718","lat":"19.411272","bikes":"2","slots":"34","zip":"06100","address":"070 - Parque M\u00e9xico - Michoacan","addressNumber":"S\/N","nearbyStations":"69,71,76","status":"OPN","name":"70 PARQUE MEXICO-MICHOACAN","stationType":"BIKE,TPV"},{"id":"71","district":"HIP","lon":"-99.171351","lat":"19.411423","bikes":"6","slots":"30","zip":"06100","address":"071 - Amsterdam - Michoacan","addressNumber":"S\/N","nearbyStations":"70,74,76","status":"OPN","name":"71 AMSTERDAM-MICHOACAN","stationType":"BIKE"},{"id":"72","district":"1","lon":"-99.179544","lat":"19.409893","bikes":"10","slots":"17","zip":"06170","address":"072 - Mazatl\u00e1n - Alfonso Reyes","addressNumber":"S\/N","nearbyStations":"65,66,75","status":"OPN","name":"72 MAZATLAN-ALFONSO REYES","stationType":"BIKE"},{"id":"73","district":"H-C","lon":"-99.175612","lat":"19.410245","bikes":"5","slots":"31","zip":"06170","address":"073 - Campeche - Tamaulipas","addressNumber":"S\/N","nearbyStations":"67,68,75","status":"OPN","name":"73 CAMPECHE-TAMAULIPAS","stationType":"BIKE"},{"id":"74","district":"1","lon":"-99.172831","lat":"19.410343","bikes":"15","slots":"10","zip":"06100","address":"074 - Nuevo Le\u00f3n - Ozulama","addressNumber":"S\/N","nearbyStations":"63,68,71","status":"OPN","name":"74 NUEVO LEON-OZULAMA","stationType":"BIKE"},{"id":"75","district":"H-C","lon":"-99.17669","lat":"19.408722","bikes":"9","slots":"5","zip":"06170","address":"075 - Alfonso Reyes - Atlixco","addressNumber":"S\/N","nearbyStations":"73,77,78","status":"OPN","name":"75 ALFONSO REYES-ATLIXCO","stationType":"BIKE"},{"id":"76","district":"HIP","lon":"-99.169913","lat":"19.408736","bikes":"3","slots":"17","zip":"06100","address":"076 - Chilpancingo - Campeche","addressNumber":"S\/N","nearbyStations":"70,71,74","status":"OPN","name":"76 CHILPANCINGO-CAMPECHE","stationType":"BIKE"},{"id":"77","district":"HIP","lon":"-99.178321","lat":"19.406765","bikes":"6","slots":"9","zip":"06100","address":"077 - Choapan - Tamaulipas","addressNumber":"S\/N","nearbyStations":"78,82","status":"OPN","name":"77 CHOAPAN-TAMAULIPAS","stationType":"BIKE"},{"id":"78","district":"HIP","lon":"-99.177382","lat":"19.407503","bikes":"8","slots":"28","zip":"06170","address":"078 - Benjam\u00edn Hill - Tamaulipas","addressNumber":"S\/N","nearbyStations":"77,82","status":"OPN","name":"78 BENJAMIN HILL-TAMAULIPAS","stationType":"BIKE,TPV"},{"id":"79","district":"HIP","lon":"-99.174427","lat":"19.407534","bikes":"5","slots":"22","zip":"06100","address":"079 - Saltillo - Alfonso Reyes","addressNumber":"S\/N","nearbyStations":"75,80,83","status":"OPN","name":"79 SALTILLO-ALFONSO REYES","stationType":"BIKE"},{"id":"80","district":"HIP","lon":"-99.172118","lat":"19.407307","bikes":"30","slots":"5","zip":"06100","address":"080 - Nuevo Le\u00f3n - Aguascalientes","addressNumber":"S\/N","nearbyStations":"79,83,84","status":"OPN","name":"80 NUEVO LEON-AGUASCALIENTES","stationType":"BIKE"},{"id":"81","district":"HIP","lon":"-99.168475","lat":"19.408006","bikes":"17","slots":"10","zip":"06100","address":"081 - Aguascalientes - Insurgentes","addressNumber":"S\/N","nearbyStations":"76,84","status":"OPN","name":"81 AGUASCALIENTES-INSURGENTES","stationType":"BIKE"},{"id":"82","district":"CEN","lon":"-99.143686","lat":"19.433115","bikes":"1","slots":"10","zip":"06100","address":"082 - Independencia - Marroqu\u00ed","addressNumber":"S\/N","nearbyStations":"43,48","status":"OPN","name":"82 INDEPENDENCIA-MARROQUI","stationType":"BIKE,TPV"},{"id":"83","district":"HIP","lon":"-99.172117","lat":"19.406296","bikes":"9","slots":"6","zip":"06100","address":"083 - Nuevo Le\u00f3n - Alfonso Reyes","addressNumber":"S\/N","nearbyStations":"79,80","status":"OPN","name":"83 NUEVO LEON-ALFONSO REYES","stationType":"BIKE,TPV"},{"id":"84","district":"HIP","lon":"-99.169587","lat":"19.40702","bikes":"5","slots":"15","zip":"06100","address":"084 - Chilpancingo - Tlaxcala","addressNumber":"S\/N","nearbyStations":"81,83","status":"OPN","name":"84 CHILPANCINGO-TLAXCALA","stationType":"BIKE"},{"id":"85","district":"S-R","lon":"-99.162508","lat":"19.43425","bikes":"3","slots":"12","zip":"06470","address":"085 - Rosas Moreno - Sullivan","addressNumber":"S\/N","nearbyStations":"1,3,12","status":"OPN","name":"85 ROSAS MORENO-SULLIVAN","stationType":"BIKE"},{"id":"86","district":"1","lon":"-99.159077","lat":"19.432378","bikes":"21","slots":"0","zip":"06470","address":"086 - Sullivan-Insurgentes","addressNumber":"S\/N","nearbyStations":"12,20","status":"OPN","name":"86 SULLIVAN-INSURGENTES","stationType":"BIKE,TPV"},{"id":"87","district":"CEN","lon":"-99.13974","lat":"19.43182","bikes":"4","slots":"20","address":"087 - Gante - Venustiano Carranza","addressNumber":"S\/N","nearbyStations":"88,95,96","status":"OPN","name":"87 GANTE-VENUSTIANO CARRANZA","stationType":"BIKE,TPV"},{"id":"88","district":"1","lon":"-99.135303","lat":"19.433815","bikes":"9","slots":"6","address":"088 - 2a Cerrada de 5 de Mayo - Palma","addressNumber":"S\/N","nearbyStations":"89","status":"OPN","name":"88 2A CDA 5 DE MAYO-PALMA","stationType":"BIKE"},{"id":"89","district":"CEN","lon":"-99.133989","lat":"19.434946","bikes":"3","slots":"9","address":"089 - Rep\u00fablica de Guatemala - Monte de Piedad","addressNumber":"S\/N","nearbyStations":"88,90","status":"OPN","name":"89 REPUBLICA DE GUATEMALA-MONTE DE PIEDAD","stationType":"BIKE,TPV"},{"id":"90","district":"CEN","lon":"-99.132446","lat":"19.431698","bikes":"4","slots":"23","address":"090 - Jos\u00e9 Mar\u00eda Pino Su\u00e1rez - Corregidora","addressNumber":"S\/N","nearbyStations":"88,89","status":"OPN","name":"90 JOSE MARIA PINO SUAREZ-CORREGIDORA","stationType":"BIKE,TPV"},{"id":"91","district":"CEN","lon":"-99.137571","lat":"19.4374","bikes":"6","slots":"15","zip":"06500","address":"091 - Republica de Cuba-Allende","addressNumber":"S\/N","nearbyStations":"90,92,93","status":"OPN","name":"91 REPUBLICA DE CUBA-ALLENDE","stationType":"BIKE"},{"id":"92","district":"CEN","lon":"-99.131497","lat":"19.436531","bikes":"0","slots":"21","zip":"06500","address":"092 - San Ildefonso-Rep\u00fablica de Argentina","addressNumber":"S\/N","nearbyStations":"90,91,93","status":"OPN","name":"92 SAN ILDEFONSO-REPUBLICA DE ARGENTINA","stationType":"BIKE"},{"id":"93","district":"CEN","lon":"-99.134811","lat":"19.436741","bikes":"8","slots":"27","zip":"06500","address":"093 - Palma Norte-Republica de Cuba","addressNumber":"S\/N","nearbyStations":"90,91,92","status":"OPN","name":"93 PALMA NORTE-REPUBLICA DE CUBA","stationType":"BIKE"},{"id":"94","district":"CEN","lon":"-99.130918","lat":"19.433766","bikes":"8","slots":"16","address":"94 - Lic. Verdad-Moneda","addressNumber":"S\/N","nearbyStations":"94","status":"OPN","name":"94 LIC. VERDAD-MONEDA","stationType":"BIKE"},{"id":"95","district":"CEN","lon":"-99.133698","lat":"19.430722","bikes":"13","slots":"4","zip":"06500","address":"095 - 20 de Noviembre-Venustiano Carranza","addressNumber":"S\/N","nearbyStations":"93,96,97","status":"OPN","name":"95 20 DE NOVIEMBRE-VENUSTIANO CARRANZA","stationType":"BIKE"},{"id":"96","district":"CEN","lon":"-99.14248","lat":"19.430625","bikes":"9","slots":"25","zip":"06500","address":"096 - L\u00f3pez-Ayuntamiento","addressNumber":"S\/N","nearbyStations":"98","status":"OPN","name":"96 LOPEZ-AYUNTAMIENTO","stationType":"BIKE"},{"id":"97","district":"CEN","lon":"-99.132759","lat":"19.429189","bikes":"5","slots":"21","zip":"06500","address":"097 - Republica de Salvador-Pino Suarez","addressNumber":"S\/N","nearbyStations":"90,100","status":"OPN","name":"97 REPUBLICA DE SALVADOR-PINO SUAREZ","stationType":"BIKE,TPV"},{"id":"98","district":"CEN","lon":"-99.14861","lat":"19.430267","bikes":"3","slots":"32","zip":"06500","address":"098 - Emilio Dond\u00e9-Av. Balderas","addressNumber":"S\/N","nearbyStations":"107,108","status":"OPN","name":"98 EMILIO DONDE-AV. BALDERAS","stationType":"BIKE"},{"id":"99","district":"CEN","lon":"-99.14591","lat":"19.42995","bikes":"10","slots":"20","address":"99 - Ernesto Pugibet-Luis Moya","addressNumber":"S\/N","nearbyStations":"96,98,122","status":"OPN","name":"99 ERNESTO PUGIBET-LUIS MOYA","stationType":"BIKE"},{"id":"100","district":"CEN","lon":"-99.1338","lat":"19.428485","bikes":"4","slots":"20","zip":"06500","address":"100 - 20 de Noviembre-Mesones","addressNumber":"S\/N","nearbyStations":"95,97","status":"OPN","name":"100 20 DE NOVIEMBRE-MESONES","stationType":"BIKE"},{"id":"101","district":"CEN","lon":"-99.135895","lat":"19.428366","bikes":"0","slots":"33","address":"1ER. CALLEJ\u00d3N DE MESONES - MESONES","addressNumber":"S\/N","nearbyStations":"100,104,105","status":"CLS","name":"101 1ER. CALLEJ\u00d3N DE MESONES-MESONES","stationType":"BIKE"},{"id":"102","district":"1","lon":"-99.13949","lat":"19.42821","bikes":"7","slots":"5","address":"102 - Echeveste-Bolivar","addressNumber":"S\/N","nearbyStations":"104,109","status":"OPN","name":"102 ECHEVESTE-BOLIVAR","stationType":"BIKE"},{"id":"103","district":"S-R","lon":"-99.165217","lat":"19.441669","bikes":"7","slots":"20","address":"103 JOAQU\u00cdN VEL\u00c1ZQUEZ DE LE\u00d3N-GARC\u00cdA ICAZBALCETA","addressNumber":"s\/n","nearbyStations":"103","status":"OPN","name":"103 JOAQU\u00cdN VEL\u00c1ZQUEZ DE LE\u00d3N-GARC\u00cdA ICAZBALCETA","stationType":"BIKE"},{"id":"104","district":"CUA","lon":"-99.137116","lat":"19.427059","bikes":"10","slots":"4","zip":"06500","address":"104 - San Jer\u00f3nimo-Isabel la Cat\u00f3lica","addressNumber":"S\/N","nearbyStations":"105,109","status":"OPN","name":"104 SAN JERONIMO-ISABEL LA CATOLICA","stationType":"BIKE,TPV"},{"id":"105","district":"CEN","lon":"-99.135014","lat":"19.426755","bikes":"0","slots":"24","zip":"06500","address":"105 - San Jer\u00f3nimo-5 de Febrero","addressNumber":"S\/N","nearbyStations":"104,106","status":"OPN","name":"105 SAN JERONIMO-5 DE FEBRERO","stationType":"BIKE"},{"id":"106","district":"CEN","lon":"-99.133537","lat":"19.42649","bikes":"16","slots":"11","zip":"06500","address":"106 - San Jer\u00f3nimo-Jos\u00e9 Mar\u00eda Pino Suarez","addressNumber":"S\/N","nearbyStations":"100,105","status":"OPN","name":"106 SAN JERONIMO-JOSE MARIA PINO SUAREZ","stationType":"BIKE"},{"id":"107","district":"CEN","lon":"-99.149971","lat":"19.427329","bikes":"11","slots":"24","zip":"06500","address":"107 - Tolsa-Balderas","addressNumber":"S\/N","nearbyStations":"98,108,122","status":"OPN","name":"107 TOLSA-BALDERAS","stationType":"BIKE"},{"id":"108","district":"CEN","lon":"-99.149533","lat":"19.427305","bikes":"5","slots":"18","zip":"06500","address":"108 - Tolsa-Balderas","addressNumber":"S\/N","nearbyStations":"33,98,107,260","status":"OPN","name":"E108 TOLSA-BALDERAS","stationType":"ELECTRIC_BIKE"},{"id":"109","district":"CEN","lon":"-99.137421","lat":"19.425311","bikes":"13","slots":"16","zip":"06500","address":"109 - Nezahualc\u00f3yotl-Isabel la Cat\u00f3lica","addressNumber":"S\/N","nearbyStations":"104,105,106","status":"OPN","name":"109 NEZAHUALCOYOTL-ISABEL LA CATOLICA","stationType":"BIKE"},{"id":"110","district":"1","lon":"-99.14339","lat":"19.42513","bikes":"6","slots":"29","address":"110 - Dr. Valenzuela-Dr. R\u00edo de la loza","addressNumber":"S\/N","nearbyStations":"107,108,122","status":"OPN","name":"110 DR. VALENZUELA-DR. R\u00cdO DE LA LOZA","stationType":"BIKE"},{"id":"111","district":"1","lon":"-99.1659465","lat":"19.4382369","bikes":"8","slots":"16","address":"111 GUILLERMO PRIETO-JOAQU\u00cdN VEL\u00c1ZQUEZ DE LE\u00d3N","addressNumber":"S\/N","nearbyStations":"103,160,183","status":"OPN","name":"111 GUILLERMO PRIETO-JOAQU\u00cdN VEL\u00c1ZQUEZ DE LE\u00d3N","stationType":"BIKE"},{"id":"112","district":"1","lon":"-99.151734","lat":"19.432819","bikes":"10","slots":"14","zip":"06500","address":"112 - Av. Morelos-Abraham Gonz\u00e1lez","addressNumber":"S\/N","nearbyStations":"98,113,114","status":"OPN","name":"112 AV. MORELOS-ABRAHAM GONZALEZ","stationType":"BIKE"},{"id":"113","district":"JUA","lon":"-99.154419","lat":"19.430369","bikes":"6","slots":"15","zip":"06500","address":"113 - General Prim-Versalles","addressNumber":"S\/N","nearbyStations":"114,116,119","status":"OPN","name":"113 GENERAL PRIM-VERSALLES","stationType":"BIKE"},{"id":"114","district":"JUA","lon":"-99.153618","lat":"19.428989","bikes":"9","slots":"15","zip":"06500","address":"114 - Lucerna-Abraham Gonz\u00e1lez","addressNumber":"S\/N","nearbyStations":"113,116,119","status":"OPN","name":"114 LUCERNA-ABRAHAM GONZALEZ ","stationType":"BIKE"},{"id":"115","district":"JUA","lon":"-99.159698","lat":"19.429947","bikes":"12","slots":"14","zip":"06500","address":"115 - Roma-Dinamarca","addressNumber":"S\/N","nearbyStations":"116,117,118","status":"OPN","name":"115 ROMA-DINAMARCA ","stationType":"BIKE"},{"id":"116","district":"JUA","lon":"-99.15664","lat":"19.428985","bikes":"4","slots":"20","zip":"06500","address":"116 - Londres-Roma","addressNumber":"S\/N","nearbyStations":"115,118,199","status":"OPN","name":"116 LONDRES-ROMA","stationType":"BIKE"},{"id":"117","district":"JUA","lon":"-99.160369","lat":"19.427132","bikes":"19","slots":"14","zip":"06500","address":"117 - Londres-Napoles","addressNumber":"S\/N","nearbyStations":"116,118,120","status":"OPN","name":"117 LONDRES-NAPOLES ","stationType":"BIKE"},{"id":"118","district":"JUA","lon":"-99.158251","lat":"19.427114","bikes":"18","slots":"3","zip":"06500","address":"118 - Liverpool-Dinamarca","addressNumber":"S\/N","nearbyStations":"116,117,120","status":"OPN","name":"118 LIVERPOOL-DINAMARCA","stationType":"BIKE"},{"id":"119","district":"JUA","lon":"-99.15554","lat":"19.42679","bikes":"10","slots":"23","address":"119 - Tur\u00edn-Abraham Gonz\u00e1lez","addressNumber":"S\/N","nearbyStations":"114,118,125","status":"OPN","name":"119 TUR\u00cdN-ABRAHAM GONZ\u00c1LEZ","stationType":"BIKE"},{"id":"120","district":"JUA","lon":"-99.159458","lat":"19.425437","bikes":"21","slots":"3","zip":"06500","address":"120 - Marsella-N\u00e1poles","addressNumber":"S\/N","nearbyStations":"117,118,121","status":"OPN","name":"120 MARSELLA-NAPOLES","stationType":"BIKE"},{"id":"121","district":"JUA","lon":"-99.161317","lat":"19.424137","bikes":"3","slots":"15","zip":"06500","address":"121 - Niza-Chapultepec","addressNumber":"S\/N","nearbyStations":"117,120,128","status":"OPN","name":"121 NIZA-CHAPULTEPEC","stationType":"BIKE"},{"id":"122","district":"DOC","lon":"-99.146337","lat":"19.425502","bikes":"3","slots":"24","zip":"06500","address":"122 - Jos\u00e9 Mar\u00eda V\u00e9rtiz-Av. Dr. R\u00edo de la Loza","addressNumber":"S\/N","nearbyStations":"99,108,110","status":"OPN","name":"122 JOSE MARIA VERTIZ-AV.DR. RIO DE LA LOZA","stationType":"BIKE"},{"id":"123","district":"1","lon":"-99.153117","lat":"19.424161","bikes":"15","slots":"14","zip":"06500","address":"123 - Claudio Bernard-Dr. Lavista","addressNumber":"S\/N","nearbyStations":"124,125,133","status":"OPN","name":"123 CLAUDIO BERNARD-DR. LAVISTA","stationType":"BIKE"},{"id":"124","district":"DOC","lon":"-99.150358","lat":"19.422392","bikes":"5","slots":"30","zip":"06500","address":"124 - Claudio Bernard-Dr. Liceaga","addressNumber":"S\/N","nearbyStations":"119,123,133","status":"OPN","name":"124 CLAUDIO BERNARD-DR. LICEAGA","stationType":"BIKE"},{"id":"125","district":"R-N","lon":"-99.156204","lat":"19.424541","bikes":"5","slots":"30","zip":"06500","address":"125 - Morelia-Circular de Morelia","addressNumber":"S\/N","nearbyStations":"119,123,127","status":"OPN","name":"125 MORELIA-CIRCULAR DE MORELIA","stationType":"BIKE"},{"id":"126","district":"R-N","lon":"-99.162138","lat":"19.422288","bikes":"16","slots":"15","address":"126 - Jalapa-Puebla","addressNumber":"S\/N","nearbyStations":"121,128,129","status":"OPN","name":"126 JALAPA-PUEBLA","stationType":"BIKE"},{"id":"127","district":"R-N","lon":"-99.15833","lat":"19.423318","bikes":"26","slots":"4","address":"127 -  Puebla-Merida","addressNumber":"S\/N","nearbyStations":"125,128,130","status":"OPN","name":"127 PUEBLA-MERIDA","stationType":"BIKE"},{"id":"128","district":"R-N","lon":"-99.160645","lat":"19.422148","bikes":"19","slots":"5","zip":"06500","address":"128 - Orizaba-R\u00edo de Janeiro","addressNumber":"S\/N","nearbyStations":"121,126,127","status":"OPN","name":"128 ORIZABA-RIO DE JANEIRO","stationType":"BIKE,TPV"},{"id":"129","district":"R-N","lon":"-99.163312","lat":"19.4206","bikes":"5","slots":"19","address":"129 - Tonal\u00e1-Durango","addressNumber":"S\/N","nearbyStations":"126,128,131","status":"OPN","name":"129 TONAL\u00c1-DURANGO","stationType":"BIKE"},{"id":"130","district":"R-N","lon":"-99.158015","lat":"19.421576","bikes":"11","slots":"10","address":"130 - M\u00e9rida-Durango","addressNumber":"S\/N","nearbyStations":"127,132,133","status":"OPN","name":"130 M\u00c9RIDA-DURANGO","stationType":"BIKE"},{"id":"131","district":"R-N","lon":"-99.161314","lat":"19.419579","bikes":"5","slots":"13","address":"131 - Colima-Jalapa","addressNumber":"S\/N","nearbyStations":"129,134","status":"OPN","name":"131 COLIMA-JALAPA","stationType":"BIKE"},{"id":"132","district":"R-N","lon":"-99.15645","lat":"19.420667","bikes":"4","slots":"20","address":"132 - Colima-Frontera","addressNumber":"S\/N","nearbyStations":"130,133,135","status":"OPN","name":"132 COLIMA-FRONTERA","stationType":"BIKE"},{"id":"133","district":"R-N","lon":"-99.154725","lat":"19.421138","bikes":"11","slots":"25","address":"133 - Colima-Morelia","addressNumber":"S\/N","nearbyStations":"130,132,135","status":"OPN","name":"133 COLIMA-MORELIA","stationType":"BIKE"},{"id":"134","district":"R-N","lon":"-99.15956","lat":"19.418304","bikes":"3","slots":"30","address":"134 - \u00c1lvaro Obreg\u00f3n-Orizaba","addressNumber":"S\/N","nearbyStations":"131,136,137","status":"OPN","name":"134 \u00c1LVARO OBREG\u00d3N-ORIZABA","stationType":"BIKE,TPV"},{"id":"135","district":"R-N","lon":"-99.155099","lat":"19.419225","bikes":"6","slots":"30","address":"135 - \u00c1lvaro Obreg\u00f3n-Morelia","addressNumber":"S\/N","nearbyStations":"132,133,137","status":"OPN","name":"135 \u00c1LVARO OBREG\u00d3N-MORELIA","stationType":"BIKE,TPV"},{"id":"136","district":"R-N","lon":"-99.162729","lat":"19.417715","bikes":"16","slots":"11","address":"136 - Tonal\u00e1-\u00c1lvaro Obreg\u00f3n","addressNumber":"S\/N","nearbyStations":"136","status":"OPN","name":"136 \u00c1LVARO OBREG\u00d3N-TONAL\u00c1","stationType":"BIKE,TPV"},{"id":"137","district":"R-N","lon":"-99.157081","lat":"19.418774","bikes":"4","slots":"23","address":"137 - \u00c1lvaro Obreg\u00f3n-M\u00e9rida","addressNumber":"S\/N","nearbyStations":"132,135,138","status":"OPN","name":"137 \u00c1LVARO OBREG\u00d3N-M\u00c9RIDA","stationType":"BIKE"},{"id":"138","district":"R-N","lon":"-99.155313","lat":"19.417702","bikes":"0","slots":"24","address":"138 - Guanajuato-Frontera","addressNumber":"S\/N","nearbyStations":"135,140,144","status":"OPN","name":"138 GUANAJUATO-FRONTERA","stationType":"BIKE"},{"id":"139","district":"R-N","lon":"-99.162097","lat":"19.416128","bikes":"4","slots":"20","address":"139 - Tonal\u00e1-Guanajuato","addressNumber":"S\/N","nearbyStations":"33,136,141,155","status":"OPN","name":"E139 TONAL\u00c1-GUANJUATO","stationType":"ELECTRIC_BIKE"},{"id":"140","district":"R-N","lon":"-99.156853","lat":"19.416605","bikes":"0","slots":"17","address":"140 - M\u00e9rida-Zacatecas","addressNumber":"S\/N","nearbyStations":"138,141,144","status":"OPN","name":"140 M\u00c9RIDA-ZACATECAS","stationType":"BIKE"},{"id":"141","district":"R-N","lon":"-99.15954","lat":"19.415905","bikes":"12","slots":"18","address":"141 - Zacatecas-Luis Cabrera","addressNumber":"S\/N","nearbyStations":"139,140,143","status":"OPN","name":"141 ZACATECAS-LUIS CABRERA","stationType":"BIKE,TPV"},{"id":"142","district":"R-N","lon":"-99.164121","lat":"19.413232","bikes":"4","slots":"25","address":"142 - San Luis Potos\u00ed-Eje 2 Pte. Monterrey","addressNumber":"S\/N","nearbyStations":"139,145,146","status":"OPN","name":"142 SAN LUIS POTOSI-EJE 2 PTE. MONTERREY","stationType":"BIKE"},{"id":"143","district":"R-N","lon":"-99.157542","lat":"19.414303","bikes":"14","slots":"7","address":"143 - C\u00f3rdoba-San Luis Potos\u00ed","addressNumber":"S\/N","nearbyStations":"141,144,147","status":"OPN","name":"143 C\u00d3RDOBA-SAN LUIS POTOS\u00cd","stationType":"BIKE"},{"id":"144","district":"R-N","lon":"-99.154837","lat":"19.415192","bikes":"9","slots":"18","address":"144 - Frontera-San Luis Potos\u00ed","addressNumber":"S\/N","nearbyStations":"140,143,148","status":"OPN","name":"144 FRONTERA-SAN LUIS POTOS\u00cd","stationType":"BIKE"},{"id":"145","district":"R-N","lon":"-99.160661","lat":"19.41286","bikes":"7","slots":"20","address":"145 - Eje 2 Sur Yucat\u00e1n-Chiapas","addressNumber":"S\/N","nearbyStations":"142,147,151","status":"OPN","name":"145 EJE 2 SUR YUCAT\u00c1N-CHIAPAS","stationType":"BIKE"},{"id":"146","district":"R-N","lon":"-99.165716","lat":"19.410737","bikes":"6","slots":"18","address":"146 - Coahuila-Manzanillo","addressNumber":"S\/N","nearbyStations":"150,152,153","status":"OPN","name":"146 COAHUILA-MANZANILLO","stationType":"BIKE"},{"id":"147","district":"R-N","lon":"-99.158443","lat":"19.412182","bikes":"10","slots":"17","address":"147 - Coahuila-Orizaba","addressNumber":"S\/N","nearbyStations":"145,149,151","status":"OPN","name":"147 COAHUILA-ORIZABA","stationType":"BIKE"},{"id":"148","district":"R-N","lon":"-99.155116","lat":"19.412829","bikes":"6","slots":"18","address":"148 - Coahuila-Av. Cuauht\u00e9moc","addressNumber":"S\/N","nearbyStations":"143,147,149","status":"OPN","name":"148 COAHUILA-AV.CUAUHTEMOC","stationType":"BIKE"},{"id":"149","district":"R-N","lon":"-99.155699","lat":"19.41199","bikes":"7","slots":"24","address":"149 - M\u00e9rida-Antonio Anza","addressNumber":"S\/N","nearbyStations":"143,147,148","status":"OPN","name":"149 M\u00c9RIDA-ANTONIO ANZA","stationType":"BIKE"},{"id":"150","district":"1","lon":"-99.164292","lat":"19.409965","bikes":"7","slots":"20","address":"150 - Campeche-Medell\u00edn","addressNumber":"S\/N","nearbyStations":"146,151,152","status":"OPN","name":"150 CAMPECHE-MEDELL\u00cdN","stationType":"BIKE"},{"id":"151","district":"ROM","lon":"-99.160873","lat":"19.410529","bikes":"5","slots":"22","address":"151 - Campeche-Tonal\u00e1","addressNumber":"S\/N","nearbyStations":"145,147,155","status":"OPN","name":"151 CAMPECHE-TONAL\u00c1","stationType":"BIKE"},{"id":"152","district":"ROM","lon":"-99.167181","lat":"19.409098","bikes":"3","slots":"27","address":"152 - Tlacotalpan-Campecha","addressNumber":"S\/N","nearbyStations":"146,150,157","status":"OPN","name":"152 TLACOTALPAN-CAMPECHE","stationType":"BIKE,TPV"},{"id":"153","district":"ROM","lon":"-99.165141","lat":"19.407468","bikes":"4","slots":"17","address":"153 - Manzanillo-Tlaxcala","addressNumber":"S\/N","nearbyStations":"154,157,161","status":"OPN","name":"153 MANZANILLO-TLAXCALA","stationType":"BIKE"},{"id":"154","district":"1","lon":"-99.167962","lat":"19.406683","bikes":"16","slots":"16","address":"154 - Tuxpan-Tlaxcala","addressNumber":"S\/N","nearbyStations":"152,153,157","status":"OPN","name":"154 TUXPAN-TLAXCALA","stationType":"BIKE,TPV"},{"id":"155","district":"ROM","lon":"-99.159911","lat":"19.408218","bikes":"15","slots":"9","address":"155 - Jalapa-Tlaxcala","addressNumber":"S\/N","nearbyStations":"139,147,151,156","status":"OPN","name":"E155 JALAPA-TLAXCALA","stationType":"ELECTRIC_BIKE"},{"id":"156","district":"ROM","lon":"-99.162983","lat":"19.406982","bikes":"6","slots":"15","address":"156 - Tepic-Ario","addressNumber":"S\/N","nearbyStations":"153,155,162","status":"OPN","name":"156 TEPIC-ARIO","stationType":"BIKE"},{"id":"157","district":"ROM","lon":"-99.166616","lat":"19.406236","bikes":"9","slots":"20","address":"157 - Tepic-Tlacotalpan","addressNumber":"S\/N","nearbyStations":"153,154,161","status":"OPN","name":"157 TEPIC-TLACOTALPAN","stationType":"BIKE"},{"id":"158","district":"ROM","lon":"-99.155717","lat":"19.407447","bikes":"3","slots":"33","address":"158 - Huatabampo- Eje 1 Pte. Av. Cuauht\u00e9moc","addressNumber":"S\/N","nearbyStations":"155,159,163","status":"OPN","name":"158 HUATABAMPO-EJE 1PTE. CUAUHT\u00c9MOC","stationType":"BIKE,TPV"},{"id":"159","district":"ROM","lon":"-99.155373","lat":"19.407517","bikes":"7","slots":"29","address":"159 - Huatabampo-Eje 1 Pte. Av. Cuauht\u00e9moc","addressNumber":"S\/N","nearbyStations":"155,158,163","status":"OPN","name":"159 HUATABAMPO-EJE 1 PTE. AV. CUAUHT\u00c9MOC","stationType":"BIKE"},{"id":"160","district":"S-R","lon":"-99.16346","lat":"19.44025","bikes":"8","slots":"14","address":"160 - Alfonzo Herrera-Gabino Barrera","addressNumber":"S\/N","nearbyStations":"103,174,257","status":"OPN","name":"E160 ALFONSO HERRERA-GABINO BARRERA","stationType":"ELECTRIC_BIKE"},{"id":"161","district":"ROM","lon":"-99.164913","lat":"19.405533","bikes":"13","slots":"8","address":"161 - Quintana Roo-Manzanillo","addressNumber":"S\/N","nearbyStations":"153,157,162","status":"OPN","name":"161 QUINTANA ROO-MANZANILLO","stationType":"BIKE"},{"id":"162","district":"ROM","lon":"-99.162485","lat":"19.404907","bikes":"4","slots":"23","address":"162 - Tehuantepec-Medell\u00edn","addressNumber":"S\/N","nearbyStations":"156,161,165","status":"OPN","name":"162 TEHUANTEPEC-MEDELL\u00cdN","stationType":"BIKE"},{"id":"163","district":"ROM","lon":"-99.156431","lat":"19.405246","bikes":"6","slots":"29","address":"163 - Toluca-Baj\u00edo","addressNumber":"S\/N","nearbyStations":"158,159,165","status":"OPN","name":"163 TOLUCA-BAJ\u00cdO","stationType":"BIKE"},{"id":"164","district":"ROM","lon":"-99.16596","lat":"19.403204","bikes":"0","slots":"27","address":"164 - Baj\u00edo-Tlacotalpan","addressNumber":"S\/N","nearbyStations":"157,161,162","status":"OPN","name":"164 BAJ\u00cdO-TLACOTALPAN","stationType":"BIKE"},{"id":"165","district":"ROM","lon":"-99.160503","lat":"19.404268","bikes":"7","slots":"14","address":"165 - Baj\u00edo-Eje 2 Pte. Monterrey","addressNumber":"S\/N","nearbyStations":"156,162,163","status":"OPN","name":"165 BAJ\u00cdO-EJE 2 PTE. MONTERREY","stationType":"BIKE"},{"id":"166","district":"ESC","lon":"-99.183549","lat":"19.406069","bikes":"8","slots":"16","address":"166 - Progreso-Cda. Antonio Maceo","addressNumber":"S\/N","nearbyStations":"170,172,181","status":"OPN","name":"166 PROGRESO-CDA. ANTONIO MACEO","stationType":"BIKE"},{"id":"167","district":"ESC","lon":"-99.179375","lat":"19.404651","bikes":"7","slots":"16","address":"167 - General Salvador Alvarado-Progreso","addressNumber":"S\/N","nearbyStations":"168,172","status":"OPN","name":"167 GENERAL SALVADOR ALVARADO-PROGRESO","stationType":"BIKE"},{"id":"168","district":"ESC","lon":"-99.1776","lat":"19.403997","bikes":"5","slots":"16","address":"168 - Comercio-Progreso","addressNumber":"S\/N","nearbyStations":"167,169,173","status":"OPN","name":"168 COMERCIO-PROGRESO","stationType":"BIKE,TPV"},{"id":"169","district":"ESC","lon":"-99.174934","lat":"19.403019","bikes":"10","slots":"10","address":"169 - Prosperidad-Progreso","addressNumber":"S\/N","nearbyStations":"168,170,175","status":"OPN","name":"169 PROSPERIDAD-PROGRESO","stationType":"BIKE"},{"id":"170","district":"ESC","lon":"-99.184342","lat":"19.404029","bikes":"9","slots":"12","address":"170 - Observatorio Oriente-Revoluci\u00f3n","addressNumber":"S\/N","nearbyStations":"166,167,172","status":"OPN","name":"170 OBSERVATORIO ORIENTE-REVOLUCI\u00d3N","stationType":"BIKE"},{"id":"171","district":"1","lon":"-99.178199","lat":"19.402584","bikes":"8","slots":"19","address":"171 - Comercio-Jose Mart\u00ed","addressNumber":"S\/N","nearbyStations":"167,168,173","status":"OPN","name":"171 COMERCIO-JOSE MART\u00cd","stationType":"BIKE"},{"id":"172","district":"ESC","lon":"-99.1816002","lat":"19.4034921","bikes":"5","slots":"13","address":"172 - General Francisco Murguia-Jose Mart\u00ed","addressNumber":"S\/N","nearbyStations":"167,170,171","status":"OPN","name":"172 GENERAL FRANCISCO MURGUIA-JOSE MART\u00cd","stationType":"BIKE"},{"id":"173","district":"1","lon":"-99.176398","lat":"19.401682","bikes":"5","slots":"16","address":"173 - Miner\u00eda-Jose Mart\u00ed","addressNumber":"S\/N","nearbyStations":"168,169,171","status":"OPN","name":"173 MINER\u00cdA-JOS\u00c9 MART\u00cd","stationType":"BIKE"},{"id":"174","district":"1","lon":"-99.16164","lat":"19.44111","bikes":"4","slots":"29","address":"174 - Joaqu\u00edn Garcia-Ignacio Manuel Altamirano","addressNumber":"S\/N","nearbyStations":"160,183,254","status":"OPN","name":"174 JOAQU\u00cdN GARCIA-IGNACIO MANUEL ALTAMIRANO","stationType":"BIKE,TPV"},{"id":"175","district":"ESC","lon":"-99.172533","lat":"19.400767","bikes":"5","slots":"15","address":"175 - Mutualismo-Jos\u00e9 Mart\u00ed","addressNumber":"S\/N","nearbyStations":"173,182,300","status":"OPN","name":"E175 MUTUALISMO-JOS\u00c9 MART\u00ed","stationType":"ELECTRIC_BIKE"},{"id":"176","district":"BUE","lon":"-99.152286","lat":"19.442689","bikes":"10","slots":"26","address":"176-LUIS DONALDO COLOSIO - AV. JES\u00dcS GARC\u00cfA","addressNumber":"S\/N","nearbyStations":"266,267,272","status":"OPN","name":"176 AV. JES\u00dcS GARC\u00cfA-LUIS DONALDO COLOSIO","stationType":"BIKE"},{"id":"177","district":"H-C","lon":"-99.181692","lat":"19.408841","bikes":"13","slots":"7","address":"177 - BENJAMIN HILL-CARLOS ZETINA","addressNumber":"S\/N","nearbyStations":"176,190","status":"OPN","name":"177 BENJAMIN HILL-CARLOS ZETINA","stationType":"BIKE"},{"id":"178","district":"H-C","lon":"-99.180457","lat":"19.406833","bikes":"0","slots":"30","address":"178 - Tamaulipas-Francisco Murgu\u00eda","addressNumber":"S\/N","nearbyStations":"166,167,177","status":"CLS","name":"178 TAMAULIPAS-FRANCISCO MURGU\u00cdA","stationType":"BIKE,TPV"},{"id":"179","district":"HIP","lon":"-99.171438","lat":"19.404452","bikes":"1","slots":"25","address":"179 - Nuevo Le\u00f3n-Quintana Roo","addressNumber":"S\/N","nearbyStations":"154,180,182","status":"OPN","name":"179 NUEVO LE\u00d3N-QUINTANA ROO","stationType":"BIKE"},{"id":"180","district":"HIP","lon":"-99.169953","lat":"19.404554","bikes":"7","slots":"23","address":"180 - Quintana Roo-Villa Hermosa","addressNumber":"S\/N","nearbyStations":"154,179,182","status":"OPN","name":"180 QUINTANA ROO-VILLA HERMOSA","stationType":"BIKE"},{"id":"181","district":"1","lon":"-99.17448","lat":"19.40472","bikes":"2","slots":"22","address":"181 - Benjamin Franklin - Ometusco","addressNumber":"S\/N","nearbyStations":"168,169,179","status":"OPN","name":"181 BENJAMIN FRANKLIN-OMETUSCO","stationType":"BIKE"},{"id":"182","district":"HIP","lon":"-99.17139","lat":"19.402089","bikes":"13","slots":"23","address":"182 - PROGRESO-ASTRONOMOS","addressNumber":"S\/N","nearbyStations":"175,179","status":"OPN","name":"182 PROGRESO-ASTRONOMOS","stationType":"BIKE,TPV"},{"id":"183","district":"S-R","lon":"-99.16402","lat":"19.43767","bikes":"18","slots":"17","address":"183 - Gabino Barrera-Guillermo Prieto","addressNumber":"S\/N","nearbyStations":"160,174,255","status":"OPN","name":"183 GABINO BARRERA-GUILLERMO PRIETO","stationType":"BIKE"},{"id":"184","district":"SMC","lon":"-99.18508","lat":"19.41479","bikes":"13","slots":"11","address":"184 - General G\u00f3mez Pedraza-Gobernador Tiburcio Montiel","addressNumber":"S\/N","nearbyStations":"185,186,187","status":"OPN","name":"184 GRAL G\u00d3MEZ PEDRAZA-GOBERNADOR TIBURCIO M","stationType":"BIKE,TPV"},{"id":"185","district":"SMC","lon":"-99.1828","lat":"19.4128","bikes":"2","slots":"28","address":"185 - General Antonio L\u00e9on-General Pedro Antonio de los Santos","addressNumber":"S\/N","nearbyStations":"176,187,190","status":"OPN","name":"185 GRAL ANTONIO L\u00c9ON-GRAL PEDRO A DE LOS S.","stationType":"BIKE"},{"id":"186","district":"SMC","lon":"-99.1885117","lat":"19.4124291","bikes":"4","slots":"14","address":"186 - Gregorio V. Gelati-Francisco Molinos del C.","addressNumber":"S\/N","nearbyStations":"187,188,189","status":"OPN","name":"186 GREGORIO V GELATI-FRANCISCO MOLINOS DEL C","stationType":"BIKE"},{"id":"187","district":"SMC","lon":"-99.18551","lat":"19.41123","bikes":"11","slots":"10","address":"187 - Genral Cano-Gobernador Gregorio V. Gelati","addressNumber":"S\/N","nearbyStations":"176,189,190","status":"OPN","name":"187 GENERAL CANO-GOBERNADOR GREGORIO V GELATI","stationType":"BIKE"},{"id":"188","district":"SMC","lon":"-99.19014","lat":"19.41171","bikes":"5","slots":"10","address":"188 - Gobernador Melchor M\u00fazquiz-Gobernador Ignacio Esteva","addressNumber":"S\/N","nearbyStations":"186,187,189","status":"OPN","name":"188 GDOR MELCHOR M\u00daZQUIZ-GDOR IGNACIO ESTEVA ","stationType":"BIKE,TPV"},{"id":"189","district":"SMC","lon":"-99.18798","lat":"19.41004","bikes":"8","slots":"9","address":"189 - Gobernador Rafael Rebollar-Gobernador Jos\u00e9 Ceballos","addressNumber":"S\/N","nearbyStations":"186,187,188","status":"OPN","name":"189 GDOR RAFAEL REBOLLAR-GDOR JOS\u00c9 CEBALLOS","stationType":"BIKE"},{"id":"190","district":"SMC","lon":"-99.183833","lat":"19.409569","bikes":"8","slots":"16","address":"190 - Gobernador Ignacio Esteva-Maestro Jos\u00e9 Vasconcelos","addressNumber":"S\/N","nearbyStations":"33,187,189,449","status":"OPN","name":"E190 GDOR IGNACIO ESTEVA-MTRO JOS\u00c9 VASCONCELOS","stationType":"ELECTRIC_BIKE"},{"id":"191","district":"SMC","lon":"-99.18795","lat":"19.4079","bikes":"12","slots":"9","address":"191 - Gobernador Rafael Rebollar-Gobernador Vicente Eguia","addressNumber":"S\/N","nearbyStations":"176,189,190","status":"OPN","name":"191 GDOR RAFAEL REBOLLAR-GDOR VICENTE EGUIA","stationType":"BIKE"},{"id":"192","district":"CHA","lon":"-99.190755","lat":"19.42592","bikes":"21","slots":"13","zip":"11510","address":"192 - Rub\u00e9n Dar\u00edo-Reforma","addressNumber":"S\/N","nearbyStations":"193,234,238","status":"OPN","name":"192 RUBEN DARIO-REFORMA","stationType":"BIKE,TPV"},{"id":"193","district":"CHA","lon":"-99.190733","lat":"19.425907","bikes":"11","slots":"23","zip":"11510","address":"193 - Rub\u00e9n Dar\u00edo.Reforma","addressNumber":"S\/N","nearbyStations":"192,234,238","status":"OPN","name":"193 RUBEN DARIO-REFORMA","stationType":"BIKE"},{"id":"194","district":"CHA","lon":"-99.180334","lat":"19.424282","bikes":"11","slots":"13","zip":"11510","address":"194 - Av. Paseo de la Reforma-Circuito Mahatma Gandhi","addressNumber":"S\/N","nearbyStations":"195,253,261","status":"OPN","name":"194 CTO MAHATMA GANDHI-AV. PASEO DE LA REFORMA","stationType":"BIKE,TPV"},{"id":"195","district":"CHA","lon":"-99.185147","lat":"19.424926","bikes":"11","slots":"13","address":"195 - Circuito Mahatma Gandhi-Av. Paseo de la Reforma","addressNumber":"S\/N","nearbyStations":"194,253,261","status":"OPN","name":"195 AV. PASEO DE LA REFORMA-CTO MAHATMA GANDHI","stationType":"BIKE,TPV"},{"id":"196","district":"POL","lon":"-99.192904","lat":"19.438349","bikes":"12","slots":"15","zip":"11510","address":"196 - Lago Tanganica- Av. Ej\u00e9rcito Nacional","addressNumber":"S\/N","nearbyStations":"204,244,245","status":"OPN","name":"196 LAGO TANGANICA-AV. EJERCITO NACIONAL","stationType":"BIKE"},{"id":"197","district":"1","lon":"-99.204316","lat":"19.440077","bikes":"0","slots":"35","address":"197 - Miguel de Cervantes Saavedra-Ferrocarril de Cuernavaca","addressNumber":"S\/N","nearbyStations":"197","status":"OPN","name":"197 MIGUEL DE CERVANTES-FC DE CUERNAVACA","stationType":"BIKE,TPV"},{"id":"198","district":"POL","lon":"-99.203888","lat":"19.438168","bikes":"0","slots":"27","address":"198 - S\u00f3crates-Ejercito Nacional","addressNumber":"S\/N","nearbyStations":"240,241","status":"OPN","name":"198 S\u00d3CRATES-EJERCITO NACIONAL ","stationType":"BIKE,TPV"},{"id":"199","district":"POL","lon":"-99.197241","lat":"19.437934","bikes":"16","slots":"8","zip":"11510","address":"199 - Anatole France-Av. Ej\u00e9rcito Nacional","addressNumber":"S\/N","nearbyStations":"196,202,203","status":"OPN","name":"199 ANATOLE FRANCE-AV. EJERCITO NACIONAL","stationType":"BIKE"},{"id":"200","district":"POL","lon":"-99.188785","lat":"19.437596","bikes":"7","slots":"20","zip":"11510","address":"200 - Emerson-Av. Ej\u00e9rcito Nacional","addressNumber":"S\/N","nearbyStations":"201,204,245","status":"OPN","name":"200 EMERSON-AV. EJERCITO NACIONAL","stationType":"BIKE"},{"id":"201","district":"POL","lon":"-99.187215","lat":"19.437431","bikes":"1","slots":"17","zip":"11510","address":"201 - Lope de Vega-Ej\u00e9rcito Nacional","addressNumber":"S\/N","nearbyStations":"200,205,245","status":"OPN","name":"201 LOPE DE VEGA-EJERCITO NACIONAL ","stationType":"BIKE"},{"id":"202","district":"POL","lon":"-99.198943","lat":"19.43617","bikes":"15","slots":"6","zip":"11510","address":"202 - Calder\u00f3n de la Barca-Av. Homero","addressNumber":"S\/N","nearbyStations":"199,206,215","status":"OPN","name":"202 CALDERON DE LA BARCA-AV. HOMERO","stationType":"BIKE"},{"id":"203","district":"POL","lon":"-99.194832","lat":"19.435985","bikes":"14","slots":"10","zip":"11510","address":"203 - Tennyson-Av. Homero","addressNumber":"S\/N","nearbyStations":"196,204,210","status":"OPN","name":"203 TENNYSON-AV. HOMERO","stationType":"BIKE"},{"id":"204","district":"1","lon":"-99.19152","lat":"19.435882","bikes":"27","slots":"0","zip":"11510","address":"204 - Temistocles-Homero","addressNumber":"S\/N","nearbyStations":"196,200,245","status":"OPN","name":"204 TEMISTOCLES-HOMERO","stationType":"BIKE"},{"id":"205","district":"POL","lon":"-99.184713","lat":"19.435525","bikes":"13","slots":"8","zip":"11510","address":"205 - Taine-Homero","addressNumber":"S\/N","nearbyStations":"201,207,217","status":"OPN","name":"205 TAINE-HOMERO","stationType":"BIKE"},{"id":"206","district":"POL","lon":"-99.201419","lat":"19.435798","bikes":"0","slots":"24","address":"206 - Moliere-Homero","addressNumber":"S\/N","nearbyStations":"202,214,215","status":"OPN","name":"206 MOLIERE-HOMERO ","stationType":"BIKE,TPV"},{"id":"207","district":"POL","lon":"-99.183322","lat":"19.434861","bikes":"16","slots":"6","zip":"11510","address":"207 - Tasso-Homero","addressNumber":"S\/N","nearbyStations":"205,217,226","status":"OPN","name":"207 TASSO-HOMERO ","stationType":"BIKE"},{"id":"208","district":"POL","lon":"-99.189835","lat":"19.434182","bikes":"27","slots":"0","zip":"11510","address":"208 - Hesiodo-Lamartine","addressNumber":"S\/N","nearbyStations":"211,212,218","status":"OPN","name":"208 HESIODO-LAMARTINE ","stationType":"BIKE"},{"id":"209","district":"POL","lon":"-99.206359","lat":"19.435478","bikes":"0","slots":"24","zip":"11510","address":"209 - Sol\u00f3n-Horacio","addressNumber":"S\/N","nearbyStations":"213,214,219","status":"OPN","name":"209 SOLON-HORACIO ","stationType":"BIKE"},{"id":"210","district":"POL","lon":"-99.194091","lat":"19.434076","bikes":"26","slots":"1","address":"210 Eugenio Sue-Horacio","addressNumber":"S\/N","nearbyStations":"203,204,216","status":"OPN","name":"210 EUGENIO SUE-HORACIO ","stationType":"BIKE"},{"id":"211","district":"POL","lon":"-99.188528","lat":"19.433607","bikes":"14","slots":"21","zip":"11510","address":"211 - Newton-Horacio","addressNumber":"S\/N","nearbyStations":"208,212,218","status":"OPN","name":"211 NEWTON-HORACIO","stationType":"BIKE"},{"id":"212","district":"POL","lon":"-99.188096","lat":"19.433567","bikes":"7","slots":"28","zip":"11510","address":"212 - Hegel-Horacio","addressNumber":"S\/N","nearbyStations":"211,218,224","status":"OPN","name":"212 HEGEL-HORACIO ","stationType":"BIKE,TPV"},{"id":"213","district":"POL","lon":"-99.20632","lat":"19.43432","bikes":"0","slots":"27","zip":"11510","address":"213 - Sol\u00f3n-Cicer\u00f3n","addressNumber":"S\/N","nearbyStations":"209,214,219","status":"OPN","name":"213 SOL\u00d3N-CICER\u00d3N","stationType":"BIKE"},{"id":"214","district":"POL","lon":"-99.20322","lat":"19.434353","bikes":"2","slots":"22","address":"214 - Plat\u00f3n-Horacio","addressNumber":"S\/N","nearbyStations":"206,209,215","status":"OPN","name":"214 PLAT\u00d3N-HORACIO","stationType":"BIKE"},{"id":"215","district":"POL","lon":"-99.19968","lat":"19.43384","bikes":"6","slots":"18","zip":"11510","address":"215 - Edgar Alan Poe-Horacio","addressNumber":"S\/N","nearbyStations":"206,214,221","status":"OPN","name":"215 EDGAR ALAN POE-HORACIO","stationType":"BIKE"},{"id":"216","district":"POL","lon":"-99.195746","lat":"19.433419","bikes":"14","slots":"10","zip":"11510","address":"216 - Alejandro Dumas-Horacio","addressNumber":"S\/N","nearbyStations":"210,222","status":"OPN","name":"216 ALEJANDRO DUMAS-HORACIO ","stationType":"BIKE,TPV"},{"id":"217","district":"POL","lon":"-99.183605","lat":"19.432888","bikes":"26","slots":"10","zip":"11510","address":"217 - Euler-Horacio","addressNumber":"S\/N","nearbyStations":"207,225,226","status":"OPN","name":"217 EULER-AV. HORACIO ","stationType":"BIKE,TPV"},{"id":"218","district":"POL","lon":"-99.188033","lat":"19.432451","bikes":"17","slots":"7","zip":"11510","address":"218 - Hegel-Ibarbourou","addressNumber":"S\/N","nearbyStations":"211,212,224","status":"OPN","name":"218 HEGEL-IBARBOUROU ","stationType":"BIKE"},{"id":"219","district":"POL","lon":"-99.207808","lat":"19.433542","bikes":"1","slots":"34","zip":"11510","address":"219 - Esopo-FC de Cuernavaca","addressNumber":"S\/N","nearbyStations":"213,220,227","status":"OPN","name":"219 ESOPO-FC DE CUERNAVACA","stationType":"BIKE"},{"id":"220","district":"POL","lon":"-99.205727","lat":"19.432655","bikes":"0","slots":"22","zip":"11510","address":"220 - Plino-Presidente Masaryk","addressNumber":"S\/N","nearbyStations":"213,219,227","status":"OPN","name":"220 PLINIO-PRESIDENTE MASARYK ","stationType":"BIKE"},{"id":"221","district":"POL","lon":"-99.201565","lat":"19.431799","bikes":"1","slots":"23","zip":"11510","address":"221 - Emilio Castelar-Presidente Masaryk","addressNumber":"S\/N","nearbyStations":"215,230,231","status":"OPN","name":"221 EMILIO CASTELAR-PRESIDENTE MASARYK ","stationType":"BIKE,TPV"},{"id":"222","district":"POL","lon":"-99.195774","lat":"19.431417","bikes":"17","slots":"7","zip":"11510","address":"222 - Alejandro Dumas-Presidente Masarik","addressNumber":"S\/N","nearbyStations":"233,241,247","status":"OPN","name":"E222 ALEJANDRO DUMAS-PRESIDENTE MASARYK","stationType":"ELECTRIC_BIKE"},{"id":"223","district":"POL","lon":"-99.191613","lat":"19.431242","bikes":"22","slots":"8","address":"223 - Newton-Presidente Masarik","addressNumber":"S\/N","nearbyStations":"222,224,231","status":"OPN","name":"223 NEWTON-PRESIDENTE MASARYK ","stationType":"BIKE,TPV"},{"id":"224","district":"POL","lon":"-99.188065","lat":"19.431255","bikes":"14","slots":"7","zip":"11510","address":"224 - Hegel-Presidente Masaryk","addressNumber":"S\/N","nearbyStations":"212,218,225","status":"OPN","name":"224 HEGEL-PRESIDENTE MASARYK","stationType":"BIKE"},{"id":"225","district":"POL","lon":"-99.185612","lat":"19.431172","bikes":"6","slots":"18","zip":"11510","address":"225 - Petrarca-Presidente Masaryk","addressNumber":"S\/N","nearbyStations":"224,226,232","status":"OPN","name":"225 PETRARCA-PRESIDENTE MASARYK","stationType":"BIKE"},{"id":"226","district":"POL","lon":"-99.18222","lat":"19.431033","bikes":"0","slots":"27","zip":"11511","address":"226 - Wallon-Presidente Masaryk","addressNumber":"S\/N","nearbyStations":"217,239,247","status":"OPN","name":"226 WALLON-PRESIDENTE MASARYK","stationType":"BIKE"},{"id":"227","district":"1","lon":"-99.207373","lat":"19.431791","bikes":"0","slots":"24","address":"227 - Campos El\u00edseos-Perif\u00e9rico","addressNumber":"S\/N","nearbyStations":"213,219,220","status":"OPN","name":"227 CAMPOS EL\u00cdSEOS-PERIF\u00c9RICO","stationType":"BIKE"},{"id":"228","district":"POL","lon":"-99.19912","lat":"19.427705","bikes":"0","slots":"21","zip":"11510","address":"228 - Campos El\u00edseos-Jean de La fontaine","addressNumber":"S\/N","nearbyStations":"230,233,235","status":"OPN","name":"228 CAMPOS EL\u00cdSEOS-JEAN DE LA FONTAINE","stationType":"BIKE,TPV"},{"id":"229","district":"POL","lon":"-99.203331","lat":"19.430515","bikes":"0","slots":"19","zip":"11510","address":"229 - Dickens-Seneca","addressNumber":"S\/N","nearbyStations":"221,235,236","status":"OPN","name":"229 DICKENS-SENECA","stationType":"BIKE"},{"id":"230","district":"POL","lon":"-99.200074","lat":"19.430098","bikes":"0","slots":"17","zip":"11510","address":"230 - Edgar Alan Poe-Dickens","addressNumber":"S\/N","nearbyStations":"221,235,236","status":"OPN","name":"230 EDGAR ALAN POE-DICKENS","stationType":"BIKE"},{"id":"231","district":"POL","lon":"-99.19349","lat":"19.42977","bikes":"12","slots":"14","zip":"11510","address":"231 - Newton-Aristoteles","addressNumber":"S\/N","nearbyStations":"222,223,234","status":"OPN","name":"231 NEWTON-ARISTOTELES ","stationType":"BIKE"},{"id":"232","district":"1","lon":"-99.185389","lat":"19.42894","bikes":"14","slots":"16","address":"232 - Taine -  Rub\u00e9n Dar\u00edo","addressNumber":"S\/N","nearbyStations":"224,225,226","status":"OPN","name":"232 TAINE-RUBEN DAR\u00cdO ","stationType":"BIKE"},{"id":"233","district":"POL","lon":"-99.196965","lat":"19.429314","bikes":"10","slots":"5","zip":"11510","address":"233 - Julio Verne-Luis G. Urbina","addressNumber":"S\/N","nearbyStations":"222,230,231","status":"OPN","name":"233 JULIO VERNE-LUIS G. URBINA ","stationType":"BIKE,TPV"},{"id":"234","district":"1","lon":"-99.191539","lat":"19.42783","bikes":"1","slots":"26","address":"234 - Tres Picos-Arqu\u00edmides","addressNumber":"S\/N","nearbyStations":"192,193,231","status":"OPN","name":"234 TRES PICOS-ARQU\u00cdMIDES ","stationType":"BIKE"},{"id":"235","district":"POL","lon":"-99.20218","lat":"19.42933","bikes":"1","slots":"26","address":"235 - Campos Eliseos-Moliere","addressNumber":"S\/N","nearbyStations":"229,230,236","status":"OPN","name":"235 CAMPOS ELISEOS-MOLIERE ","stationType":"BIKE"},{"id":"236","district":"POL","lon":"-99.20243","lat":"19.42944","bikes":"0","slots":"30","address":"236 - Campos Eliseos-Moliere","addressNumber":"S\/N","nearbyStations":"229,230,235","status":"OPN","name":"236 CAMPOS ELISEOS-MOLIERE ","stationType":"BIKE"},{"id":"237","district":"1","lon":"-99.193986","lat":"19.426744","bikes":"22","slots":"8","address":"237 - Andr\u00e9s Bello-Elliot","addressNumber":"S\/N","nearbyStations":"193,234,238","status":"OPN","name":"237 ANDR\u00c9S BELLO-ELLIOT ","stationType":"BIKE,TPV"},{"id":"238","district":"1","lon":"-99.193752","lat":"19.426765","bikes":"14","slots":"15","address":"238 - Andr\u00e9s Bello-Elliot","addressNumber":"S\/N","nearbyStations":"193,234,237","status":"OPN","name":"238 ANDR\u00c9S BELLO-ELLIOT ","stationType":"BIKE"},{"id":"239","district":"POL","lon":"-99.181355","lat":"19.430153","bikes":"2","slots":"19","zip":"11510","address":"239 - Rincon del Bosque-Ruben Dario","addressNumber":"S\/N","nearbyStations":"226,247,250","status":"OPN","name":"239 RINCON DEL BOSQUE-RUBEN DAR\u00cdO ","stationType":"BIKE"},{"id":"240","district":"POL","lon":"-99.2063","lat":"19.43855","bikes":"0","slots":"36","address":"204- Ejercito Nacional-F.C. de Cuernavaca","addressNumber":"S\/N","nearbyStations":"198,241","status":"OPN","name":"240 EJERCITO NACIONAL-F.C. DE CUERNAVACA ","stationType":"BIKE,TPV"},{"id":"241","district":"POL","lon":"-99.20758","lat":"19.43862","bikes":"17","slots":"7","address":"241 - Ejercito Nacional-Juan Vazquez de la Mella","addressNumber":"S\/N","nearbyStations":"222,460","status":"OPN","name":"E241 EJERCITO NAL-JUAN VAZQUEZ DE LA MELLA ","stationType":"ELECTRIC_BIKE"},{"id":"242","district":"GRA","lon":"-99.20105","lat":"19.440344","bikes":"1","slots":"28","zip":"11510","address":"242 - Miguel de Cervantes Saavedra-Pr\u00f3l. Moliere","addressNumber":"S\/N","nearbyStations":"198,199,243","status":"OPN","name":"242 MIGUEL DE CERVANTES SAAVEDRA-PROL MOLIERE ","stationType":"BIKE"},{"id":"243","district":"1","lon":"-99.196712","lat":"19.440839","bikes":"0","slots":"27","zip":"11510","address":"243 - Miguel de Cervantes Saavedra-Lago Filt","addressNumber":"S\/N","nearbyStations":"199,242,244","status":"OPN","name":"243 MIGUEL DE CERVANTES SAAVEDRA-LAGO FILT ","stationType":"BIKE"},{"id":"244","district":"GRA","lon":"-99.193315","lat":"19.440885","bikes":"1","slots":"17","zip":"11510","address":"244 - Miguel de Cervantes Saavedra-Lago Victoria","addressNumber":"S\/N","nearbyStations":"196,243,245","status":"OPN","name":"244 MIGUEL DE CERVANTES SAAVEDRA-LAGO VICTORIA ","stationType":"BIKE"},{"id":"245","district":"GRA","lon":"-99.19048","lat":"19.43819","bikes":"6","slots":"17","zip":"11510","address":"245 - Lago Onega-Av. Ej\u00e9rcito Nacional","addressNumber":"S\/N","nearbyStations":"196,200,201","status":"OPN","name":"245 LAGO ONEGA-AV. EJERCITO NACIONAL ","stationType":"BIKE"},{"id":"246","district":"2","lon":"-99.179835","lat":"19.434147","bikes":"14","slots":"1","zip":"11510","address":"246 - Leibnitz-Thiers","addressNumber":"S\/N","nearbyStations":"207,247,248","status":"OPN","name":"246 LEIBNITZ-THIERS","stationType":"BIKE"},{"id":"247","district":"2","lon":"-99.18064","lat":"19.432276","bikes":"6","slots":"18","zip":"11510","address":"247 - Herschel-Rousseau","addressNumber":"S\/N","nearbyStations":"246,469,472","status":"OPN","name":"E247 HERSCHEL-ROUSSEAU ","stationType":"ELECTRIC_BIKE"},{"id":"248","district":"1","lon":"-99.177399","lat":"19.43175","bikes":"6","slots":"20","zip":"11510","address":"248 - Shakespeare-Lafayette","addressNumber":"S\/N","nearbyStations":"246,247,249","status":"OPN","name":"248 SHAKESPEARE-LAFAYETTE ","stationType":"BIKE"},{"id":"249","district":"2","lon":"-99.177569","lat":"19.429877","bikes":"10","slots":"8","zip":"11510","address":"249 - Shakespeare-Darwin","addressNumber":"S\/N","nearbyStations":"248,250,251","status":"OPN","name":"249 SHAKESPEARE-DARWIN ","stationType":"BIKE"},{"id":"250","district":"1","lon":"-99.17966","lat":"19.429057","bikes":"12","slots":"15","zip":"11510","address":"250 - Darwin-Mariano Escobedo","addressNumber":"S\/N","nearbyStations":"239,249,252","status":"OPN","name":"250 DARWIN-MARIANO ESCOBEDO ","stationType":"BIKE,TPV"},{"id":"251","district":"2","lon":"-99.17538","lat":"19.429261","bikes":"4","slots":"14","zip":"11510","address":"251 - Goethe-Darwin","addressNumber":"S\/N","nearbyStations":"248,249,252","status":"OPN","name":"251 GOETHE-DARWIN ","stationType":"BIKE"},{"id":"252","district":"2","lon":"-99.17702","lat":"19.427575","bikes":"14","slots":"4","zip":"11510","address":"252 - V\u00edctor Hugo-Shakespeare","addressNumber":"S\/N","nearbyStations":"249,251,253","status":"OPN","name":"252 VICTOR HUGO-SHAKESPEARE ","stationType":"BIKE"},{"id":"253","district":"1","lon":"-99.177924","lat":"19.425835","bikes":"12","slots":"9","zip":"11510","address":"253 - Dante-Tolstoi","addressNumber":"S\/N","nearbyStations":"195,252,261","status":"OPN","name":"253 DANTE-TOLSTOI ","stationType":"BIKE,TPV"},{"id":"254","district":"S-R","lon":"-99.16007","lat":"19.43935","bikes":"8","slots":"22","address":"254 - Alfonso Herrera-Miguel Shultz","addressNumber":"S\/N","nearbyStations":"160,174,256","status":"OPN","name":"254 ALFONSO HERRERA-MIGUEL SHULTZ ","stationType":"BIKE"},{"id":"255","district":"1","lon":"-99.161808","lat":"19.437159","bikes":"0","slots":"36","address":"255-Jose Rosas Moreno-Guillermo Prieto","addressNumber":"S\/N","nearbyStations":"160,183,257","status":"CLS","name":"255 JOSE ROSAS MORENO-GUILLERMO PRIETO ","stationType":"BIKE"},{"id":"256","district":"S-R","lon":"-99.15816","lat":"19.4372","bikes":"7","slots":"20","address":"256 - G\u00f3mez Far\u00edas Sadi Carnot","addressNumber":"S\/N","nearbyStations":"254,259","status":"OPN","name":"256 G\u00d3MEZ FAR\u00cdAS-SADI CARNOT ","stationType":"BIKE"},{"id":"257","district":"S-R","lon":"-99.16622","lat":"19.4338","bikes":"1","slots":"20","address":"257 - Manuel Maria Contreras-Villalongin","addressNumber":"S\/N","nearbyStations":"6,33,160,469","status":"OPN","name":"E257 MANUEL MARIA CONTRERAS-VILLALONGIN ","stationType":"ELECTRIC_BIKE"},{"id":"258","district":"CON","lon":"-99.1791","lat":"19.4167","bikes":"22","slots":"8","address":"258 - Circuito Interior-Juan Escutia","addressNumber":"S\/N","nearbyStations":"36,49,53","status":"OPN","name":"258 CIRCUITO INTERIOR-JUAN ESCUTIA ","stationType":"BIKE"},{"id":"259","district":"1","lon":"-99.15468","lat":"19.43757","bikes":"4","slots":"20","address":"259 - T\u00f3mas Alva Edison-Ponciano Arriaga","addressNumber":"S\/N","nearbyStations":"256","status":"OPN","name":"259 T\u00d3MAS ALVA EDISON-PONCIANO ARRIAGA ","stationType":"BIKE"},{"id":"260","district":"CEN","lon":"-99.147742","lat":"19.435354","bikes":"3","slots":"21","address":"260 - Av. Ju\u00e1rez-Balderas","addressNumber":"S\/N","nearbyStations":"29,33,41,108","status":"OPN","name":"E260 AV JUAREZ-BALDERAS ","stationType":"ELECTRIC_BIKE"},{"id":"261","district":"1","lon":"-99.17246","lat":"19.42495","bikes":"24","slots":"2","address":"261 Paseo de la Reforma-R\u00edo de la Plata","addressNumber":"S\/N","nearbyStations":"195,252,253","status":"OPN","name":"261 PASEO DE LA REFORMA - R\u00cdO DE LA PLATA","stationType":"BIKE"},{"id":"262","district":"CEN","lon":"-99.13395","lat":"19.43693","bikes":"5","slots":"27","address":"262 - Republica de Cuba-Republica de Brasil","addressNumber":"S\/N","nearbyStations":"91,92,93","status":"OPN","name":"262 REPUBLICA DE CUBA-REPUBLICA DE BRASIL ","stationType":"BIKE,TPV"},{"id":"263","district":"S-R","lon":"-99.158425","lat":"19.436274","bikes":"4","slots":"24","address":"263 - Sadi Carnot - G\u00f3mez Farias","addressNumber":"S\/N","nearbyStations":"85,86,256","status":"OPN","name":"263 SADI CARNOT-G\u00d3MEZ FARIAS ","stationType":"BIKE,TPV"},{"id":"264","district":"1","lon":"-99.152935","lat":"19.440985","bikes":"3","slots":"32","address":"264 - H. Ferrocarrileros - Jes\u00fas Garcia ","addressNumber":"S\/N","nearbyStations":"265,266,268","status":"OPN","name":"264 H\u00c9ROES FERROCARRILEROS-AV. CENTRAL","stationType":"BIKE"},{"id":"265","district":"1","lon":"-99.152265","lat":"19.440839","bikes":"6","slots":"30","address":"265 - Jes\u00fas Garcia-H\u00e9roes Ferrocarrileros","addressNumber":"S\/N","nearbyStations":"264,275","status":"OPN","name":"265 H\u00c9ROES FERROCARRILEROS-JES\u00daS GARCIA","stationType":"BIKE,TPV"},{"id":"266","district":"BUE","lon":"-99.152187","lat":"19.444031","bikes":"1","slots":"35","address":"266 - Av. Jes\u00fas Garcia -  Carlos J. Meneses","addressNumber":"S\/N","nearbyStations":"267,268,269","status":"OPN","name":"266 AV. JES\u00daS GARCIA-CARLOS J. MENESES ","stationType":"BIKE,TPV"},{"id":"267","district":"BUE","lon":"-99.152203","lat":"19.443735","bikes":"16","slots":"20","address":"267 - Carlos J. Meneses - Av. jes\u00fas Garc\u00eda","addressNumber":"S\/N","nearbyStations":"176,266,271","status":"OPN","name":"267 AV. JES\u00dcS GARC\u00cfA-CARLOS J. MENESES","stationType":"BIKE"},{"id":"268","district":"BUE","lon":"-99.151658","lat":"19.442467","bikes":"4","slots":"31","address":"268 Luis Donaldo Colosio - Av. Jesus Garcia","addressNumber":"S\/N","nearbyStations":"176,269,273","status":"OPN","name":"268 LUIS DONALDO COLOSIO-AV.JES\u00daS GARC\u00cdA ","stationType":"BIKE"},{"id":"269","district":"BUE","lon":"-99.151586","lat":"19.442448","bikes":"8","slots":"26","address":"269 Luis Donaldo Colosio - Aldama","addressNumber":"S\/N","nearbyStations":"176,268,273","status":"OPN","name":"269 LUIS DONALDO COLOSIO-ALDAMA ","stationType":"BIKE"},{"id":"270","district":"TAB","lon":"-99.15387","lat":"19.43676","bikes":"6","slots":"29","address":"270 - De la Republica-Ponciano Arriaga","addressNumber":"S\/N","nearbyStations":"270","status":"OPN","name":"270 DE LA REPUBLICA-PONCIANO ARRIAGA ","stationType":"BIKE,TPV"},{"id":"271","district":"1","lon":"-99.152525","lat":"19.443928","bikes":"34","slots":"1","address":"271 Av. Jes\u00fas Garc\u00eda - J. Meneses","addressNumber":"S\/N","nearbyStations":"266,267,272","status":"OPN","name":"271 AV. CENTRAL-J. MENESES ","stationType":"BIKE"},{"id":"272","district":"BUE","lon":"-99.152556","lat":"19.443556","bikes":"34","slots":"1","address":"271 Av. Jesus Garcia - J. Meneses","addressNumber":"S\/N","nearbyStations":"266,267,271","status":"OPN","name":"272 AV. CENTRAL-J. MENESES ","stationType":"BIKE"},{"id":"273","district":"1","lon":"-99.152956","lat":"19.442707","bikes":"2","slots":"34","address":"273 Luis Donaldo Colosio - Av. Jesus Garcia","addressNumber":"S\/N","nearbyStations":"176,268,274","status":"OPN","name":"273 LUIS DONALDO COLOSIO-AV. CENTRAL","stationType":"BIKE"},{"id":"274","district":"BUE","lon":"-99.153289","lat":"19.442772","bikes":"10","slots":"23","address":"274 Luis Donaldo Colosio - Av. Insurgentes Norte","addressNumber":"S\/N","nearbyStations":"176,268,273","status":"OPN","name":"274 LUIS DONALDO COLOSIO-AV INSURGENTES NORTE ","stationType":"BIKE"},{"id":"275","district":"BUE","lon":"-99.153164","lat":"19.441062","bikes":"1","slots":"35","address":"275 H\u00e9roes Ferrocarrileros - Av. Jes\u00fas Garc\u00eda","addressNumber":"S\/N","nearbyStations":"264,265","status":"OPN","name":"275 H\u00c9ROES FERROCARRILEROS-AV. INSURGENTES NORTE","stationType":"BIKE"},{"id":"276","district":"NAR","lon":"-99.156366","lat":"19.401986","bikes":"4","slots":"26","zip":"3020","address":"276 - Anax\u00e1goras-Obrero Mundial","addressNumber":"S\/N","nearbyStations":"277,280,281","status":"OPN","name":"276 ANAX\u00c1GORAS-OBRERO MUNDIAL","stationType":"BIKE"},{"id":"277","district":"1","lon":"-99.15909","lat":"19.401807","bikes":"13","slots":"13","zip":"3020","address":"277 - Ampliaci\u00f3n Tonal\u00e1-Obrero Mundial","addressNumber":"S\/N","nearbyStations":"165,276,280","status":"OPN","name":"277 AMPLIACI\u00d3N TONAL\u00c1-OBRERO MUNDIAL","stationType":"BIKE"},{"id":"278","district":"1","lon":"-99.163831","lat":"19.40071","bikes":"8","slots":"13","zip":"3103","address":"278 - Mier Y Pesado-Obrero Mundial","addressNumber":"S\/N","nearbyStations":"164,279,282","status":"OPN","name":"278 MIER Y PESADO-OBRERO MUNDIAL","stationType":"BIKE"},{"id":"279","district":"DVN","lon":"-99.166553","lat":"19.399908","bikes":"5","slots":"25","zip":"3103","address":"279 - La Morena-Providencia","addressNumber":"S\/N","nearbyStations":"164,278,282","status":"OPN","name":"279 LA MORENA-PROVIDENCIA","stationType":"BIKE"},{"id":"280","district":"NAR","lon":"-99.156406","lat":"19.4015","bikes":"0","slots":"36","zip":"3020","address":"280 - Anax\u00e1goras-Obrero Mundial","addressNumber":"S\/N","nearbyStations":"276,277,281","status":"OPN","name":"280 ANAX\u00c1GORAS-OBRERO MUNDIAL","stationType":"BIKE,TPV"},{"id":"281","district":"NAR","lon":"-99.157308","lat":"19.398532","bikes":"10","slots":"20","zip":"3020","address":"281 - Pit\u00e1goras-La Morena","addressNumber":"S\/N","nearbyStations":"276,280,295","status":"OPN","name":"281 PIT\u00c1GORAS-LA MORENA","stationType":"BIKE"},{"id":"282","district":"DVN","lon":"-99.161273","lat":"19.398692","bikes":"12","slots":"5","zip":"3103","address":"282 - La Morena-Eje 2 Poniente Gabriel Mancera","addressNumber":"S\/N","nearbyStations":"278,293,294","status":"OPN","name":"282 LA MORENA-EJE 2 PONIENTE GABRIEL MANCERA","stationType":"BIKE"},{"id":"283","district":"1","lon":"-99.167383","lat":"19.39827","bikes":"5","slots":"16","zip":"3103","address":"283 - Av. Coyoac\u00e1n-Rafael Donde","addressNumber":"S\/N","nearbyStations":"279,292,293","status":"OPN","name":"283 AV. COYOAC\u00c1N-RAFAEL DONDE","stationType":"BIKE"},{"id":"284","district":"NAP","lon":"-99.172981","lat":"19.397693","bikes":"9","slots":"24","zip":"3810","address":"284 - Dakota-Vermont","addressNumber":"S\/N","nearbyStations":"289,290,291","status":"OPN","name":"284 DAKOTA-VERMONT","stationType":"BIKE"},{"id":"285","district":"ESC","lon":"-99.1775178","lat":"19.3997946","bikes":"12","slots":"6","zip":"11800","address":"285 - 12 De Octubre-Mineria","addressNumber":"S\/N","nearbyStations":"171,173,286","status":"OPN","name":"285 12 DE OCTUBRE-MINERIA","stationType":"BIKE"},{"id":"286","district":"ESC","lon":"-99.179943","lat":"19.399201","bikes":"0","slots":"20","zip":"11800","address":"286 - 13 De Septiembre-Avenida Patriotismo","addressNumber":"S\/N","nearbyStations":"171,285,287","status":"OPN","name":"286 13 DE SEPTIEMBRE-AVENIDA PATRIOTISMO","stationType":"BIKE"},{"id":"287","district":"ESC","lon":"-99.183254","lat":"19.398946","bikes":"9","slots":"12","zip":"11800","address":"287 - 13 De Septiembre-Puente De La Morena","addressNumber":"S\/N","nearbyStations":"286,288,311","status":"OPN","name":"287 13 DE SEPTIEMBRE-PUENTE DE LA MORENA","stationType":"BIKE"},{"id":"288","district":"1","lon":"-99.183575","lat":"19.396333","bikes":"5","slots":"13","zip":"3800","address":"288 - 11 De Abril-Avenida 2","addressNumber":"S\/N","nearbyStations":"287,310,311","status":"OPN","name":"288 11 DE ABRIL-AVENIDA 2","stationType":"BIKE"},{"id":"289","district":"NAP","lon":"-99.174548","lat":"19.397308","bikes":"0","slots":"18","zip":"3810","address":"289 - Chicago-Yosemite","addressNumber":"S\/N","nearbyStations":"284,290,304","status":"OPN","name":"289 CHICAGO-YOSEMITE","stationType":"BIKE"},{"id":"290","district":"NAP","lon":"-99.172667","lat":"19.396333","bikes":"2","slots":"25","zip":"3810","address":"290 - Yosemite-Colorado","addressNumber":"S\/N","nearbyStations":"284,289,303","status":"OPN","name":"290 YOSEMITE-COLORADO","stationType":"BIKE"},{"id":"291","district":"DVN","lon":"-99.169946","lat":"19.397651","bikes":"3","slots":"24","zip":"3103","address":"291 - Magdalena-Divisi\u00f3n Del Norte","addressNumber":"S\/N","nearbyStations":"283,284,290","status":"OPN","name":"291 MAGDALENA-DIVISI\u00d3N DEL NORTE","stationType":"BIKE"},{"id":"292","district":"DVN","lon":"-99.166264","lat":"19.396917","bikes":"0","slots":"36","zip":"3103","address":"292 - Adolfo Prieto-Eje 4 Sur Xola","addressNumber":"S\/N","nearbyStations":"283,293,299","status":"OPN","name":"292 ADOLFO PRIETO-EJE 4 SUR XOLA","stationType":"BIKE"},{"id":"293","district":"DVN","lon":"-99.164598","lat":"19.397373","bikes":"7","slots":"29","zip":"3103","address":"293 - Mier Y Pesado-Eje 4 Sur Xola","addressNumber":"S\/N","nearbyStations":"283,292,294","status":"OPN","name":"293 MIER Y PESADO-EJE 4 SUR XOLA","stationType":"BIKE,TPV"},{"id":"294","district":"NAR","lon":"-99.160924","lat":"19.396513","bikes":"8","slots":"16","zip":"3020","address":"294 - Nicol\u00e1s San Juan-Eje 4 Sur Xola","addressNumber":"S\/N","nearbyStations":"282,295,298","status":"OPN","name":"294 NICOL\u00c1S SAN JUAN-EJE 4 SUR XOLA","stationType":"BIKE"},{"id":"295","district":"NAR","lon":"-99.156871","lat":"19.396328","bikes":"17","slots":"18","zip":"3020","address":"295 - Anax\u00e1goras-Eje 4 Sur Xola","addressNumber":"S\/N","nearbyStations":"281,296,297","status":"OPN","name":"295 ANAX\u00c1GORAS-EJE 4 SUR XOLA","stationType":"BIKE,TPV"},{"id":"296","district":"NAR","lon":"-99.158756","lat":"19.394283","bikes":"3","slots":"18","zip":"3020","address":"296 - Diagonal San Antonio-Enrique R\u00e9bsamen","addressNumber":"S\/N","nearbyStations":"295,297,300","status":"OPN","name":"E296 DIAGONAL SAN ANTONIO-ENRIQUE R\u00c9BSAMEN","stationType":"ELECTRIC_BIKE"},{"id":"297","district":"NAR","lon":"-99.158907","lat":"19.394412","bikes":"2","slots":"30","zip":"3020","address":"297 - Diagonal San Antonio-Enrique R\u00e9bsamen","addressNumber":"S\/N","nearbyStations":"295,296,320","status":"OPN","name":"297 DIAGONAL SAN ANTONIO-ENRIQUE R\u00c9BSAMEN","stationType":"BIKE"},{"id":"298","district":"DVN","lon":"-99.16214","lat":"19.394073","bikes":"7","slots":"14","zip":"3103","address":"298 - Romero De Terreros-Gabriel Mancera","addressNumber":"S\/N","nearbyStations":"294,318,319","status":"OPN","name":"298 ROMERO DE TERREROS-GABRIEL MANCERA","stationType":"BIKE"},{"id":"299","district":"DVN","lon":"-99.165054","lat":"19.394601","bikes":"3","slots":"21","zip":"3103","address":"299 - Romero De Terreros-Mier Y Pesado","addressNumber":"S\/N","nearbyStations":"292,298,318","status":"OPN","name":"299 ROMERO DE TERREROS-MIER Y PESADO","stationType":"BIKE"},{"id":"300","district":"DVN","lon":"-99.168333","lat":"19.393268","bikes":"9","slots":"11","zip":"3103","address":"300 - Providencia -Luz Savi\u00f1on","addressNumber":"S\/N","nearbyStations":"296,301,302","status":"OPN","name":"E300 PROVIDENCIA -LUZ SAVI\u00d1ON","stationType":"ELECTRIC_BIKE"},{"id":"301","district":"DVN","lon":"-99.171133","lat":"19.393807","bikes":"9","slots":"13","zip":"3103","address":"301 - Luz Savi\u00f1\u00f3n-Magdalena","addressNumber":"S\/N","nearbyStations":"300,302,316","status":"OPN","name":"301 LUZ SAVI\u00d1\u00d3N-MAGDALENA","stationType":"BIKE"},{"id":"302","district":"DVN","lon":"-99.171466","lat":"19.393832","bikes":"7","slots":"29","zip":"3103","address":"302 - Luz Savi\u00f1on-Magdalena","addressNumber":"S\/N","nearbyStations":"301,303,304","status":"OPN","name":"302 LUZ SAVI\u00d1ON-MAGDALENA","stationType":"BIKE"},{"id":"303","district":"NAP","lon":"-99.173025","lat":"19.394842","bikes":"22","slots":"4","zip":"3810","address":"303 - Montesito-Av. Insurgentes","addressNumber":"S\/N","nearbyStations":"301,302,304","status":"OPN","name":"303 MONTESITO-AV. INSURGENTES","stationType":"BIKE,TPV"},{"id":"304","district":"NAP","lon":"-99.173821","lat":"19.395043","bikes":"19","slots":"14","zip":"3810","address":"304 - Montesito-Dakota","addressNumber":"S\/N","nearbyStations":"290,303,305","status":"OPN","name":"304 MONTESITO-DAKOTA","stationType":"BIKE"},{"id":"305","district":"1","lon":"-99.175531","lat":"19.394693","bikes":"4","slots":"32","zip":"3810","address":"305 - Avenida Del Parque-Arizona","addressNumber":"S\/N","nearbyStations":"304,306,307","status":"OPN","name":"305 AVENIDA DEL PARQUE-ARIZONA","stationType":"BIKE,TPV"},{"id":"306","district":"NAP","lon":"-99.175664","lat":"19.393699","bikes":"20","slots":"15","zip":"3810","address":"306 - Dakota-Filadelfia","addressNumber":"S\/N","nearbyStations":"305,307,308","status":"OPN","name":"306 DAKOTA-FILADELFIA","stationType":"BIKE,TPV"},{"id":"307","district":"NAP","lon":"-99.175834","lat":"19.393701","bikes":"11","slots":"16","zip":"3810","address":"307 - Minesota-Dakota","addressNumber":"S\/N","nearbyStations":"305,306,308","status":"OPN","name":"307 MINESOTA-DAKOTA","stationType":"BIKE"},{"id":"308","district":"1","lon":"-99.178072","lat":"19.393594","bikes":"11","slots":"18","zip":"3810","address":"308 - Nueva York-Arizona","addressNumber":"S\/N","nearbyStations":"306,307,309","status":"OPN","name":"308 NUEVA YORK-ARIZONA","stationType":"BIKE"},{"id":"309","district":"NAP","lon":"-99.17956","lat":"19.393162","bikes":"2","slots":"25","zip":"3810","address":"309 - Pennsylvania-Arizona","addressNumber":"S\/N","nearbyStations":"308,310,313","status":"OPN","name":"309 PENNSYLVANIA-ARIZONA","stationType":"BIKE"},{"id":"310","district":"1","lon":"-99.181733","lat":"19.395319","bikes":"9","slots":"6","zip":"3800","address":"310 - Calle 1-Av. Patriotismo","addressNumber":"S\/N","nearbyStations":"309,311,312","status":"OPN","name":"310 CALLE 1-AV. PATRIOTISMO","stationType":"BIKE"},{"id":"311","district":"1","lon":"-99.185391","lat":"19.393665","bikes":"14","slots":"4","zip":"3800","address":"311 - Calle 5-Avenida Revoluci\u00f3n","addressNumber":"S\/N","nearbyStations":"310,312,328","status":"OPN","name":"311 CALLE 5-AVENIDA REVOLUCI\u00d3N","stationType":"BIKE"},{"id":"312","district":"SPP","lon":"-99.183737","lat":"19.392634","bikes":"11","slots":"16","zip":"3800","address":"312 - Avenida 2-Calle 7","addressNumber":"S\/N","nearbyStations":"310,311,328","status":"OPN","name":"312 AVENIDA 2-CALLE 7","stationType":"BIKE,TPV"},{"id":"313","district":"1","lon":"-99.178989","lat":"19.391431","bikes":"4","slots":"20","zip":"3810","address":"313 - Pennsylvania-Oklahoma","addressNumber":"S\/N","nearbyStations":"308,309,314","status":"OPN","name":"313 PENNSYLVANIA-OKLAHOMA","stationType":"BIKE"},{"id":"314","district":"NAP","lon":"-99.177331","lat":"19.391647","bikes":"11","slots":"10","zip":"3810","address":"314 - Nuerva York-Louisiana","addressNumber":"S\/N","nearbyStations":"307,313,327","status":"OPN","name":"314 NUERVA YORK-LOUISIANA","stationType":"BIKE"},{"id":"315","district":"NAP","lon":"-99.1736","lat":"19.391472","bikes":"13","slots":"8","zip":"3810","address":"315 - Alabama-Montana","addressNumber":"S\/N","nearbyStations":"301,302,316","status":"OPN","name":"315 ALABAMA-MONTANA","stationType":"BIKE"},{"id":"316","district":"DVN","lon":"-99.1712","lat":"19.391056","bikes":"8","slots":"17","zip":"3103","address":"316 - San Francisco-Concepci\u00f3n Beistegui","addressNumber":"S\/N","nearbyStations":"301,302,315","status":"OPN","name":"316 SAN FRANCISCO-CONCEPCI\u00d3N BEISTEGUI","stationType":"BIKE"},{"id":"317","district":"DVN","lon":"-99.166157","lat":"19.391456","bikes":"4","slots":"32","zip":"3103","address":"317 - Avenida Coyoac\u00e1n-Torres Adalid","addressNumber":"S\/N","nearbyStations":"299,300,318","status":"OPN","name":"317 AVENIDA COYOAC\u00c1N-TORRES ADALID","stationType":"BIKE,TPV"},{"id":"318","district":"DVN","lon":"-99.164127","lat":"19.392249","bikes":"5","slots":"16","zip":"3103","address":"318 - Luz Savi\u00f1\u00f3n-Amores","addressNumber":"S\/N","nearbyStations":"299,317,319","status":"OPN","name":"318 LUZ SAVI\u00d1\u00d3N-AMORES","stationType":"BIKE"},{"id":"319","district":"DVN","lon":"-99.162684","lat":"19.391991","bikes":"18","slots":"6","zip":"3103","address":"319 - Diagonal San Antonio-Luz Savi\u00f1on","addressNumber":"S\/N","nearbyStations":"298,318,320","status":"OPN","name":"319 DIAGONAL SAN ANTONIO-LUZ SAVI\u00d1ON","stationType":"BIKE"},{"id":"320","district":"NAR","lon":"-99.15936","lat":"19.391323","bikes":"8","slots":"10","zip":"3020","address":"320 - Enrique R\u00e9bsamen-Luz Savi\u00f1on","addressNumber":"S\/N","nearbyStations":"296,297,319","status":"OPN","name":"320 ENRIQUE R\u00c9BSAMEN-LUZ SAVI\u00d1ON","stationType":"BIKE"},{"id":"321","district":"1","lon":"-99.157513","lat":"19.389477","bikes":"5","slots":"19","zip":"3020","address":"321 - Torres Adalid-Anax\u00e1goras","addressNumber":"S\/N","nearbyStations":"320,322,340","status":"OPN","name":"321 TORRES ADALID-ANAX\u00c1GORAS","stationType":"BIKE"},{"id":"322","district":"1","lon":"-99.160616","lat":"19.388528","bikes":"5","slots":"22","zip":"3020","address":"322 - Heriberto Fr\u00edas-Concepci\u00f3n Beistegui","addressNumber":"S\/N","nearbyStations":"321,323,339","status":"OPN","name":"322 HERIBERTO FR\u00cdAS-CONCEPCI\u00d3N BEISTEGUI","stationType":"BIKE"},{"id":"323","district":"DVN","lon":"-99.163403","lat":"19.389026","bikes":"14","slots":"10","zip":"3103","address":"323 - Concepci\u00f3n Beistegui-Gabriel Mancera","addressNumber":"S\/N","nearbyStations":"319,322,324","status":"OPN","name":"323 CONCEPCI\u00d3N BEISTEGUI-GABRIEL MANCERA","stationType":"BIKE"},{"id":"324","district":"DVC","lon":"-99.1656554","lat":"19.3872468","bikes":"4","slots":"14","zip":"3100","address":"324 - Amores-Avenida Eugenia","addressNumber":"S\/N","nearbyStations":"323,336,337","status":"OPN","name":"324 AMORES-AVENIDA EUGENIA","stationType":"BIKE"},{"id":"325","district":"1","lon":"-99.1696894","lat":"19.3881779","bikes":"14","slots":"10","zip":"3100","address":"325 - Providencia -Avenida Del Valle","addressNumber":"S\/N","nearbyStations":"316,335,336","status":"OPN","name":"325 PROVIDENCIA -AVENIDA DEL VALLE","stationType":"BIKE"},{"id":"326","district":"AMN","lon":"-99.174811","lat":"19.388978","bikes":"10","slots":"7","zip":"3840","address":"326 - Eugenia-Nebraska","addressNumber":"S\/N","nearbyStations":"327,334,335","status":"OPN","name":"326 EUGENIA-NEBRASKA","stationType":"BIKE"},{"id":"327","district":"NAP","lon":"-99.17772","lat":"19.38885","bikes":"10","slots":"13","zip":"3810","address":"327 - Georgia -Pennsylvania","addressNumber":"S\/N","nearbyStations":"300,314,326","status":"OPN","name":"E327 GEORGIA -PENNSYLVANIA","stationType":"ELECTRIC_BIKE"},{"id":"328","district":"SPP","lon":"-99.184742","lat":"19.392586","bikes":"4","slots":"22","zip":"3800","address":"328 - Avenida 1-Calle 7","addressNumber":"S\/N","nearbyStations":"311,312,329","status":"OPN","name":"328 AVENIDA 1-CALLE 7","stationType":"BIKE"},{"id":"329","district":"SPP","lon":"-99.184812","lat":"19.390306","bikes":"18","slots":"6","zip":"3800","address":"329 - Calle 13-Avenida 1","addressNumber":"S\/N","nearbyStations":"312,328,330","status":"OPN","name":"329 CALLE 13-AVENIDA 1","stationType":"BIKE"},{"id":"330","district":"SPP","lon":"-99.182606","lat":"19.389358","bikes":"0","slots":"17","zip":"3800","address":"330 - Calle 15-Avenida Patriotismo","addressNumber":"S\/N","nearbyStations":"329,331,332","status":"OPN","name":"330 CALLE 15-AVENIDA PATRIOTISMO","stationType":"BIKE"},{"id":"331","district":"SPP","lon":"-99.183971","lat":"19.388547","bikes":"10","slots":"16","zip":"3800","address":"331 - Avenida 2-Calle 17","addressNumber":"S\/N","nearbyStations":"329,330,332","status":"OPN","name":"331 AVENIDA 2-CALLE 17","stationType":"BIKE"},{"id":"332","district":"SPP","lon":"-99.183809","lat":"19.385508","bikes":"3","slots":"21","zip":"3800","address":"332 - Sur De Calle 27-Avenida 3","addressNumber":"S\/N","nearbyStations":"330,331,333","status":"OPN","name":"332 SUR DE CALLE 27-AVENIDA 3","stationType":"BIKE"},{"id":"333","district":"NAP","lon":"-99.180978","lat":"19.387624","bikes":"2","slots":"18","zip":"3810","address":"333 - Georgia -Carolina","addressNumber":"S\/N","nearbyStations":"330,332,349","status":"OPN","name":"333 GEORGIA -CAROLINA","stationType":"BIKE"},{"id":"334","district":"AMN","lon":"-99.175089","lat":"19.386568","bikes":"19","slots":"15","zip":"3840","address":"334 - Nuerva York-Av. Insurgentes","addressNumber":"S\/N","nearbyStations":"326,335,346","status":"OPN","name":"334 NUEVA YORK-AV. INSURGENTES","stationType":"BIKE"},{"id":"335","district":"DVC","lon":"-99.173504","lat":"19.387003","bikes":"2","slots":"31","zip":"3100","address":"335 - Magdalena-Ameyalco","addressNumber":"S\/N","nearbyStations":"326,334,346","status":"OPN","name":"335 MAGDALENA-AMEYALCO","stationType":"BIKE"},{"id":"336","district":"DVC","lon":"-99.169673","lat":"19.385531","bikes":"7","slots":"14","zip":"3100","address":"336 - San Borja-Cda. Bartoloche","addressNumber":"S\/N","nearbyStations":"325,337,345","status":"OPN","name":"336 SAN BORJA-CDA. BARTOLOCHE","stationType":"BIKE"},{"id":"337","district":"DVC","lon":"-99.16704","lat":"19.384849","bikes":"3","slots":"18","zip":"3100","address":"337 - San Borja-Mart\u00edn Menlalde","addressNumber":"S\/N","nearbyStations":"324,336,338","status":"OPN","name":"337 SAN BORJA-MART\u00cdN MENLALDE","stationType":"BIKE,TPV"},{"id":"338","district":"DVC","lon":"-99.163273","lat":"19.384249","bikes":"8","slots":"13","zip":"3100","address":"338 - Nicolas San Juan-San Borja","addressNumber":"S\/N","nearbyStations":"324,336,337","status":"OPN","name":"338 NICOLAS SAN JUAN-SAN BORJA","stationType":"BIKE"},{"id":"339","district":"NAR","lon":"-99.160548","lat":"19.386032","bikes":"7","slots":"14","zip":"3020","address":"339 - Enrique R\u00e9bsamen-Avenida Eugenia","addressNumber":"S\/N","nearbyStations":"322,340,343","status":"OPN","name":"339 ENRIQUE R\u00c9BSAMEN-AVENIDA EUGENIA","stationType":"BIKE"},{"id":"340","district":"NAR","lon":"-99.158188","lat":"19.385571","bikes":"7","slots":"23","zip":"3020","address":"340 - Anax\u00e1goras-Avenida Eugenia","addressNumber":"S\/N","nearbyStations":"339,341,343","status":"OPN","name":"340 ANAX\u00c1GORAS-AVENIDA EUGENIA","stationType":"BIKE,TPV"},{"id":"341","district":"NAR","lon":"-99.158204","lat":"19.382851","bikes":"11","slots":"19","zip":"3020","address":"341 - San Borja-Avenida Cuauhtemoc","addressNumber":"S\/N","nearbyStations":"340,343,364","status":"OPN","name":"341 SAN BORJA-AVENIDA CUAUHTEMOC","stationType":"BIKE"},{"id":"342","district":"NAR","lon":"-99.159455","lat":"19.381076","bikes":"9","slots":"27","zip":"3020","address":"342 - Anax\u00e1goras-Angel Urraza Eje 6 Sur","addressNumber":"S\/N","nearbyStations":"341,344,359","status":"OPN","name":"342 ANAX\u00c1GORAS-ANGEL URRAZA EJE 6 SUR","stationType":"BIKE"},{"id":"343","district":"DVC","lon":"-99.160826","lat":"19.384099","bikes":"3","slots":"13","zip":"3100","address":"343 - Enrique R\u00e9bsamen-Divisi\u00f3n Del Norte","addressNumber":"S\/N","nearbyStations":"338,341,344","status":"OPN","name":"343 ENRIQUE R\u00c9BSAMEN-DIVISI\u00d3N DEL NORTE","stationType":"BIKE"},{"id":"344","district":"DVC","lon":"-99.162243","lat":"19.382107","bikes":"8","slots":"19","zip":"3100","address":"344 - Heriberto Fr\u00edas-Angel Urraza Eje 6 Sur","addressNumber":"S\/N","nearbyStations":"338,343,358","status":"OPN","name":"344 HERIBERTO FR\u00cdAS-ANGEL URRAZA EJE 6 SUR","stationType":"BIKE"},{"id":"345","district":"ISB","lon":"-99.172223","lat":"19.384498","bikes":"2","slots":"19","zip":"3100","address":"345 - Miraflores-Patricio Sanz","addressNumber":"S\/N","nearbyStations":"334,335,346","status":"OPN","name":"345 MIRAFLORES-PATRICIO SANZ","stationType":"BIKE"},{"id":"346","district":"ISB","lon":"-99.174077","lat":"19.385019","bikes":"15","slots":"9","zip":"3100","address":"346 - San Francisco-Santa Margarita","addressNumber":"S\/N","nearbyStations":"334,335,345","status":"OPN","name":"346 SAN FRANCISCO-SANTA MARGARITA","stationType":"BIKE"},{"id":"347","district":"1","lon":"-99.176097","lat":"19.384378","bikes":"6","slots":"21","zip":"3710","address":"347 - Pennsylvania-Maximino Avila Camacho","addressNumber":"S\/N","nearbyStations":"334,346,348","status":"OPN","name":"347 PENNSYLVANIA-MAXIMINO AVILA CAMACHO","stationType":"BIKE,TPV"},{"id":"348","district":"CDD","lon":"-99.178216","lat":"19.385365","bikes":"3","slots":"15","zip":"3710","address":"348 - Indiana-Avenida San Antonio","addressNumber":"S\/N","nearbyStations":"347,349,350","status":"OPN","name":"348 INDIANA-AVENIDA SAN ANTONIO","stationType":"BIKE"},{"id":"349","district":"AMN","lon":"-99.180857","lat":"19.385688","bikes":"3","slots":"18","zip":"3840","address":"349 - Augusto Rodin-Avenida San Antonio","addressNumber":"S\/N","nearbyStations":"332,348,350","status":"OPN","name":"349 AUGUSTO RODIN-AVENIDA SAN ANTONIO","stationType":"BIKE"},{"id":"350","district":"1","lon":"-99.181482","lat":"19.384062","bikes":"4","slots":"26","zip":"3710","address":"350 - Jose Clemente Orozco-Correggio","addressNumber":"S\/N","nearbyStations":"349,352","status":"OPN","name":"350 JOSE CLEMENTE OROZCO-CORREGGIO","stationType":"BIKE"},{"id":"351","district":"SPP","lon":"-99.186297","lat":"19.385751","bikes":"6","slots":"12","zip":"3800","address":"351 - Calle 27-Avenida Revoluci\u00f3n","addressNumber":"S\/N","nearbyStations":"332,352,364","status":"OPN","name":"351 CALLE 27-AVENIDA REVOLUCI\u00d3N","stationType":"BIKE"},{"id":"352","district":"SMN","lon":"-99.185447","lat":"19.384114","bikes":"24","slots":"6","zip":"3700","address":"352 - Tintoreto-Giorgine","addressNumber":"S\/N","nearbyStations":"351,364,365","status":"OPN","name":"352 TINTORETO-GIORGINE","stationType":"BIKE,TPV"},{"id":"353","district":"CDD","lon":"-99.178808","lat":"19.382168","bikes":"5","slots":"22","zip":"3710","address":"353 - Carolina-Holbein","addressNumber":"S\/N","nearbyStations":"354,361,362","status":"OPN","name":"353 CAROLINA-HOLBEIN","stationType":"BIKE,TPV"},{"id":"354","district":"NBU","lon":"-99.176685","lat":"19.381665","bikes":"7","slots":"14","zip":"3720","address":"354 - Boston-Av. Insurgentes","addressNumber":"S\/N","nearbyStations":"353,361,369","status":"OPN","name":"354 BOSTON-AV. INSURGENTES","stationType":"BIKE"},{"id":"355","district":"ISB","lon":"-99.173291","lat":"19.38205","bikes":"12","slots":"9","zip":"3100","address":"355 - California-Sacramento","addressNumber":"S\/N","nearbyStations":"345,361","status":"OPN","name":"355 CALIFORNIA-SACRAMENTO","stationType":"BIKE"},{"id":"356","district":"1","lon":"-99.170171","lat":"19.381292","bikes":"10","slots":"8","zip":"3100","address":"356 - Matias Romero -Adolfo Prieto","addressNumber":"S\/N","nearbyStations":"355,357,372","status":"OPN","name":"356 MATIAS ROMERO -ADOLFO PRIETO","stationType":"BIKE"},{"id":"357","district":"DVC","lon":"-99.1669248","lat":"19.380598","bikes":"15","slots":"9","zip":"3100","address":"357 - Matias Romero -Amores","addressNumber":"S\/N","nearbyStations":"356,358,373","status":"OPN","name":"357 MATIAS ROMERO -AMORES","stationType":"BIKE"},{"id":"358","district":"DVC","lon":"-99.164222","lat":"19.380168","bikes":"7","slots":"17","zip":"3100","address":"358 - Nicolas San Juan-Matias Romero","addressNumber":"S\/N","nearbyStations":"357,360,373","status":"OPN","name":"358 NICOLAS SAN JUAN-MATIAS ROMERO ","stationType":"BIKE"},{"id":"359","district":"DVC","lon":"-99.161169","lat":"19.379269","bikes":"10","slots":"19","zip":"3100","address":"359 - Matias Romero -Pestallozzi","addressNumber":"S\/N","nearbyStations":"342,360,374","status":"OPN","name":"359 MATIAS ROMERO -PESTALLOZZI","stationType":"BIKE,TPV"},{"id":"360","district":"DVC","lon":"-99.1628259","lat":"19.3790279","bikes":"7","slots":"14","zip":"3100","address":"360 - Heriberto Fr\u00edas-Matias Romero","addressNumber":"S\/N","nearbyStations":"300,358,359,391","status":"OPN","name":"E360 HERIBERTO FR\u00cdAS-MATIAS ROMERO","stationType":"ELECTRIC_BIKE"},{"id":"361","district":"1","lon":"-99.17508","lat":"19.380709","bikes":"3","slots":"24","zip":"3100","address":"361 - Porfirio D\u00edaz-Capul\u00edn","addressNumber":"S\/N","nearbyStations":"354,369,370","status":"OPN","name":"361 PORFIRIO D\u00cdAZ-CAPUL\u00cdN","stationType":"BIKE"},{"id":"362","district":"CDD","lon":"-99.181043","lat":"19.382207","bikes":"11","slots":"10","zip":"3710","address":"362 - Augusto Rodin-Alberto Balderas","addressNumber":"S\/N","nearbyStations":"367,368","status":"OPN","name":"362 AUGUSTO RODIN-ALBERTO BALDERAS","stationType":"BIKE"},{"id":"363","district":"CDD","lon":"-99.183851","lat":"19.380813","bikes":"0","slots":"21","zip":"3710","address":"363 - Holbein-Paulo Ucello","addressNumber":"S\/N","nearbyStations":"362,365,367","status":"OPN","name":"363 HOLBEIN-PAULO UCELLO","stationType":"BIKE"},{"id":"364","district":"SMN","lon":"-99.185858","lat":"19.383063","bikes":"3","slots":"24","zip":"3700","address":"364 - Botichelli-Cda. De Giorgone","addressNumber":"S\/N","nearbyStations":"351,352,365","status":"OPN","name":"364 BOTICHELLI-CDA. DE GIORGONE","stationType":"BIKE"},{"id":"365","district":"SMN","lon":"-99.186687","lat":"19.381117","bikes":"7","slots":"22","zip":"3700","address":"365 - Holbein-Avenida Revoluci\u00f3n","addressNumber":"S\/N","nearbyStations":"352,363,364","status":"OPN","name":"365 HOLBEIN-AVENIDA REVOLUCI\u00d3N","stationType":"BIKE"},{"id":"366","district":"EXI","lon":"-99.181973","lat":"19.378345","bikes":"2","slots":"22","zip":"3740","address":"366 - Porfirio D\u00edaz-Augusto Rod\u00edn","addressNumber":"S\/N","nearbyStations":"362,367,368","status":"OPN","name":"366 PORFIRIO D\u00cdAZ-AUGUSTO ROD\u00cdN","stationType":"BIKE"},{"id":"367","district":"NBU","lon":"-99.181632","lat":"19.37946","bikes":"12","slots":"9","zip":"3720","address":"367 - Boston -Augusto Rod\u00edn","addressNumber":"S\/N","nearbyStations":"362,363,366","status":"OPN","name":"367 BOSTON -AUGUSTO ROD\u00cdN","stationType":"BIKE"},{"id":"368","district":"1","lon":"-99.179344","lat":"19.379246","bikes":"10","slots":"14","zip":"3740","address":"368 - Porfirio D\u00edaz-Cincinatti","addressNumber":"S\/N","nearbyStations":"366,367,369","status":"OPN","name":"368 PORFIRIO D\u00cdAZ-CINCINATTI ","stationType":"BIKE"},{"id":"369","district":"1","lon":"-99.177478","lat":"19.379884","bikes":"21","slots":"15","zip":"3740","address":"369 - Porfirio D\u00edaz-Av. Insurgentes","addressNumber":"S\/N","nearbyStations":"367,368","status":"OPN","name":"369 PORFIRIO D\u00cdAZ-AV. INSURGENTES","stationType":"BIKE,TPV"},{"id":"370","district":"TLA","lon":"-99.177054","lat":"19.378818","bikes":"7","slots":"23","zip":"3200","address":"370 - Tlacoquemecatl-Av. Insurgentes","addressNumber":"S\/N","nearbyStations":"361,369,371","status":"OPN","name":"370 TLACOQUEMECATL-AV. INSURGENTES","stationType":"BIKE"},{"id":"371","district":"TLA","lon":"-99.174328","lat":"19.378542","bikes":"9","slots":"12","zip":"3200","address":"371 - Tlacoquemecatl-Capulin","addressNumber":"S\/N","nearbyStations":"361,369,370","status":"OPN","name":"371 TLACOQUEMECATL-CAPULIN","stationType":"BIKE"},{"id":"372","district":"1","lon":"-99.170289","lat":"19.37797","bikes":"4","slots":"17","zip":"3104","address":"372 - Dr. Roberto Gayol-Tlacoquemecatl","addressNumber":"S\/N","nearbyStations":"373,378,379","status":"OPN","name":"372 DR. ROBERTO GAYOL-TLACOQUEMECATL","stationType":"BIKE,TPV"},{"id":"373","district":"DVC","lon":"-99.166663","lat":"19.377968","bikes":"13","slots":"5","zip":"3100","address":"373 - Pilares-Gabriel Mancera","addressNumber":"S\/N","nearbyStations":"357,372,378","status":"OPN","name":"373 PILARES-GABRIEL MANCERA","stationType":"BIKE"},{"id":"374","district":"DVC","lon":"-99.161116","lat":"19.376964","bikes":"8","slots":"21","zip":"3100","address":"374 - Anax\u00e1goras-Pilares","addressNumber":"S\/N","nearbyStations":"359,375,376","status":"OPN","name":"374 PIT\u00c1GORAS-PILARES","stationType":"BIKE,TPV"},{"id":"375","district":"LEV","lon":"-99.158818","lat":"19.376865","bikes":"15","slots":"9","zip":"3650","address":"375 - Tenayuca-Divisi\u00f3n Del Norte","addressNumber":"S\/N","nearbyStations":"359,374,376","status":"OPN","name":"375 TENAYUCA-DIVISI\u00d3N DEL NORTE","stationType":"BIKE"},{"id":"376","district":"LEV","lon":"-99.161595","lat":"19.375442","bikes":"6","slots":"21","zip":"3650","address":"376 - Pit\u00e1goras-Av. Universidad","addressNumber":"S\/N","nearbyStations":"374,375,377","status":"OPN","name":"376 PIT\u00c1GORAS-AV. UNIVERSIDAD","stationType":"BIKE"},{"id":"377","district":"DVS","lon":"-99.16375","lat":"19.375394","bikes":"14","slots":"21","zip":"3104","address":"377 - Heriberto Fr\u00edas-Miguel Laurent","addressNumber":"S\/N","nearbyStations":"373,376,400","status":"OPN","name":"377 HERIBERTO FR\u00cdAS-MIGUEL LAURENT","stationType":"BIKE"},{"id":"378","district":"DVS","lon":"-99.168076","lat":"19.375823","bikes":"5","slots":"25","zip":"3104","address":"378 - Miguel Laurent-Amores","addressNumber":"S\/N","nearbyStations":"372,373,379","status":"OPN","name":"378 MIGUEL LAURENT-AMORES","stationType":"BIKE"},{"id":"379","district":"1","lon":"-99.17084","lat":"19.375751","bikes":"2","slots":"32","zip":"3104","address":"379 - Dr. Roberto Gayol-Miguel Laurent","addressNumber":"S\/N","nearbyStations":"378,380,395","status":"OPN","name":"379 DR. ROBERTO GAYOL-MIGUEL LAURENT","stationType":"BIKE"},{"id":"380","district":"TLA","lon":"-99.173512","lat":"19.374876","bikes":"8","slots":"19","zip":"3200","address":"380 - Moras-San Lorenzo","addressNumber":"S\/N","nearbyStations":"392,393,394","status":"OPN","name":"380 MORAS-SAN LORENZO","stationType":"BIKE"},{"id":"381","district":"TLA","lon":"-99.177894","lat":"19.375541","bikes":"9","slots":"18","zip":"3200","address":"381 - San Lorenzo-Manzanas","addressNumber":"S\/N","nearbyStations":"382,387,389","status":"OPN","name":"381 SAN LORENZO-MANZANAS","stationType":"BIKE"},{"id":"382","district":"TLA","lon":"-99.178084","lat":"19.375591","bikes":"0","slots":"24","zip":" 3200 ","address":"382 - San Lorenzo-Av. Insurgentes","addressNumber":"S\/N","nearbyStations":"381,387,389","status":"OPN","name":"382 SAN LORENZO-AV. INSURGENTES","stationType":"BIKE"},{"id":"383","district":"EXI","lon":"-99.181527","lat":"19.375764","bikes":"6","slots":"9","zip":"3740","address":"383 - Luis Caracci-2da. Luis Caracci","addressNumber":"S\/N","nearbyStations":"366,382,387","status":"OPN","name":"383 LUIS CARACCI-2DA. LUIS CARACCI","stationType":"BIKE"},{"id":"384","district":"INM","lon":"-99.185583","lat":"19.375873","bikes":"7","slots":"14","zip":"3920","address":"384 - Empresa-Poussin","addressNumber":"S\/N","nearbyStations":"385,386,417","status":"OPN","name":"384 EMPRESA-POUSSIN","stationType":"BIKE"},{"id":"385","district":"INM","lon":"-99.18558","lat":"19.375651","bikes":"0","slots":"34","zip":"3920","address":"385 - Poussin-Empresa","addressNumber":"S\/N","nearbyStations":"384,386,417","status":"OPN","name":"385 POUSSIN-EMPRESA","stationType":"BIKE,TPV"},{"id":"386","district":"INM","lon":"-99.185846","lat":"19.37484","bikes":"4","slots":"32","zip":"3920","address":"386 - Poussin-Donatello","addressNumber":"S\/N","nearbyStations":"384,385,417","status":"OPN","name":"386 POUSSIN-DONATELLO","stationType":"BIKE"},{"id":"387","district":"INM","lon":"-99.180505555556","lat":"19.37455556","bikes":"13","slots":"5","zip":"3920","address":"387 - Cadiz-Empresa","addressNumber":"S\/N","nearbyStations":"381,382,383","status":"OPN","name":"387 CADIZ-EMPRESA","stationType":"BIKE"},{"id":"388","district":"INM","lon":"-99.181355","lat":"19.373038","bikes":"4","slots":"17","zip":"3920","address":"388 - Valencia-Malaga","addressNumber":"S\/N","nearbyStations":"387,389,390","status":"OPN","name":"388 VALENCIA-MALAGA","stationType":"BIKE"},{"id":"389","district":"INM","lon":"-99.179356","lat":"19.373528","bikes":"1","slots":"35","zip":"3920","address":"389 - Santander-Felix Cuevas","addressNumber":"S\/N","nearbyStations":"388,390,391","status":"OPN","name":"389 SANTANDER-FELIX CUEVAS","stationType":"BIKE"},{"id":"390","district":"DVS","lon":"-99.17826","lat":"19.373228","bikes":"0","slots":"36","zip":"3104","address":"390 - Oso-Felix Cuevas","addressNumber":"S\/N","nearbyStations":"389,391,416","status":"OPN","name":"390 OSO-FELIX CUEVAS","stationType":"BIKE,TPV"},{"id":"391","district":"DVS","lon":"-99.178283","lat":"19.373142","bikes":"5","slots":"15","zip":"3104","address":"391 - Oso-Felix Cuevas","addressNumber":"S\/N","nearbyStations":"390,416,434","status":"OPN","name":"E391 OSO-FELIX CUEVAS","stationType":"ELECTRIC_BIKE"},{"id":"392","district":"TLA","lon":"-99.1747749","lat":"19.3730067","bikes":"0","slots":"21","zip":"3200","address":"392 - Patricio Sanz-Felix Cuevas","addressNumber":"S\/N","nearbyStations":"380,393,394","status":"OPN","name":"392 PATRICIO SANZ-FELIX CUEVAS","stationType":"BIKE"},{"id":"393","district":"TLA","lon":"-99.172558","lat":"19.372796","bikes":"15","slots":"19","zip":"3200","address":"393 - Adolfo Prieto-Felix Cuevas","addressNumber":"S\/N","nearbyStations":"380,392,394","status":"OPN","name":"393 ADOLFO PRIETO-FELIX CUEVAS","stationType":"BIKE,TPV"},{"id":"394","district":"DVS","lon":"-99.171592","lat":"19.372437","bikes":"7","slots":"27","zip":"3104","address":"394 - Dr. Roberto Gayol-Felix Cuevas","addressNumber":"S\/N","nearbyStations":"393,395,396","status":"OPN","name":"394 DR. ROBERTO GAYOL-FELIX CUEVAS","stationType":"BIKE"},{"id":"395","district":"DVS","lon":"-99.169814","lat":"19.373742","bikes":"7","slots":"22","zip":"3104","address":"395 - San Lorenzo-Callej\u00f3n Mart\u00edn Menlalde","addressNumber":"S\/N","nearbyStations":"379,394,396","status":"OPN","name":"395 SAN LORENZO-CALLEJ\u00d3N MART\u00cdN MENLALDE","stationType":"BIKE"},{"id":"396","district":"DVS","lon":"-99.170187","lat":"19.371554","bikes":"7","slots":"13","zip":"3104","address":"396 - Mart\u00edn Menlalde-Felix Cuevas","addressNumber":"S\/N","nearbyStations":"394,395,413","status":"OPN","name":"396 MART\u00cdN MENLALDE-FELIX CUEVAS","stationType":"BIKE"},{"id":"397","district":"DVS","lon":"-99.167247","lat":"19.373194","bikes":"3","slots":"27","zip":"3104","address":"397 - San Lorenzo-Gabriel Mancera","addressNumber":"S\/N","nearbyStations":"398,399,400","status":"OPN","name":"397 SAN LORENZO-GABRIEL MANCERA","stationType":"BIKE"},{"id":"398","district":"DVS","lon":"-99.16566","lat":"19.37103","bikes":"6","slots":"21","zip":"3104","address":"398 - Sanchez Azcona-Felix Cuevas","addressNumber":"S\/N","nearbyStations":"397,399,400","status":"OPN","name":"398 SANCHEZ AZCONA-FELIX CUEVAS","stationType":"BIKE"},{"id":"399","district":"DVS","lon":"-99.164519","lat":"19.372407","bikes":"3","slots":"33","zip":"3104","address":"399 - Heriberto Fr\u00edas-San Lorenzo","addressNumber":"S\/N","nearbyStations":"397,398,400","status":"OPN","name":"399 HERIBERTO FR\u00cdAS-SAN LORENZO","stationType":"BIKE"},{"id":"400","district":"DVS","lon":"-99.1642743","lat":"19.3726458","bikes":"5","slots":"23","zip":"3104","address":"400 - San Lorenzo-Heriberto Frias","addressNumber":"S\/N","nearbyStations":"397,398,399","status":"OPN","name":"400 SAN LORENZO-HERIBERTO FRIAS","stationType":"BIKE"},{"id":"401","district":"SCA","lon":"-99.16158","lat":"19.372147","bikes":"6","slots":"26","zip":"3310","address":"401 - San Lorenzo-Avenida Cuauhtemoc","addressNumber":"S\/N","nearbyStations":"400,402,403","status":"OPN","name":"401 SAN LORENZO-AVENIDA CUAUHTEMOC","stationType":"BIKE"},{"id":"402","district":"1","lon":"-99.1587223","lat":"19.3709452","bikes":"1","slots":"26","zip":"3310","address":"402 - Uxmal-Municipio Libre","addressNumber":"S\/N","nearbyStations":"401,403,405","status":"OPN","name":"402 UXMAL-MUNICIPIO LIBRE","stationType":"BIKE"},{"id":"403","district":"SCA","lon":"-99.158639","lat":"19.371371","bikes":"2","slots":"28","zip":"3310","address":"403 - Uxmal-Municipio Libre","addressNumber":"S\/N","nearbyStations":"401,402,405","status":"OPN","name":"403 UXMAL-MUNICIPIO LIBRE","stationType":"BIKE"},{"id":"404","district":"LEV","lon":"-99.157387","lat":"19.373813","bikes":"9","slots":"21","zip":"3650","address":"404 - Miguel Laurent-Avenida Divisi\u00f3n Del Norte","addressNumber":"S\/N","nearbyStations":"402,403,405","status":"OPN","name":"404 MIGUEL LAURENT-AVENIDA DIVISI\u00d3N DEL NORTE","stationType":"BIKE"},{"id":"405","district":"PON","lon":"-99.156626","lat":"19.370619","bikes":"7","slots":"22","zip":"3303","address":"405 - Divisi\u00f3n Del Norte-Municipio Libre","addressNumber":"S\/N","nearbyStations":"402,403,404","status":"OPN","name":"405 DIVISI\u00d3N DEL NORTE-MUNICIPIO LIBRE","stationType":"BIKE,TPV"},{"id":"406","district":"SCA","lon":"-99.163261","lat":"19.367831","bikes":"0","slots":"21","zip":"3310","address":"406 - Parroquia Av. Mexico-Coyoacan","addressNumber":"S\/N","nearbyStations":"402,407,411","status":"CLS","name":"406 PARROQUIA AV. MEXICO-COYOACAN","stationType":"BIKE"},{"id":"407","district":"REE","lon":"-99.158694","lat":"19.367294","bikes":"1","slots":"20","zip":"3320","address":"407 - Prolongaci\u00f3n Xochicalco-General Emiliano Zapat","addressNumber":"S\/N","nearbyStations":"408,410","status":"OPN","name":"407 PROL. XOCHICALCO-GENERAL EMILIANO ZAPATA","stationType":"BIKE"},{"id":"408","district":"REE","lon":"-99.156843","lat":"19.36677","bikes":"5","slots":"19","zip":"3320","address":"408 - Prolongaci\u00f3n Pet\u00e9n-General Emiliano Zapata","addressNumber":"S\/N","nearbyStations":"407,409,410","status":"OPN","name":"408 PROLONGACI\u00d3N PET\u00c9N-GENERAL EMILIANO ZAPATA","stationType":"BIKE"},{"id":"409","district":"SCA","lon":"-99.155499","lat":"19.365102","bikes":"2","slots":"22","zip":"3310","address":"409 - Azores-Divisi\u00f3n Del Norte","addressNumber":"S\/N","nearbyStations":"408,410,430","status":"OPN","name":"409 AZORES-DIVISI\u00d3N DEL NORTE","stationType":"BIKE"},{"id":"410","district":"SCA","lon":"-99.158063","lat":"19.36564","bikes":"5","slots":"18","zip":"3310","address":"410 - Prolongaci\u00f3n Taj\u00edn-Prolongaci\u00f3n Rep\u00fablicas","addressNumber":"S\/N","nearbyStations":"407,408,409","status":"OPN","name":"410 PROLONGACI\u00d3N TAJ\u00cdN-PROLONGACI\u00d3N REP\u00daBLICAS","stationType":"BIKE"},{"id":"411","district":"SCA","lon":"-99.163626","lat":"19.367864","bikes":"2","slots":"33","zip":"3310","address":"411 - Parroquia-Avenida M\u00e9xico-Coyoacan","addressNumber":"S\/N","nearbyStations":"412,425,427","status":"OPN","name":"411 PARROQUIA-AVENIDA M\u00c9XICO-COYOACAN","stationType":"BIKE"},{"id":"412","district":"SCA","lon":"-99.1654145","lat":"19.3684182","bikes":"6","slots":"30","zip":"3310","address":"412 - Parroquia-Avenida Universidad","addressNumber":"S\/N","nearbyStations":"411,425,426","status":"OPN","name":"412 PARROQUIA-AVENIDA UNIVERSIDAD","stationType":"BIKE,TPV"},{"id":"413","district":"DVS","lon":"-99.171906","lat":"19.369782","bikes":"4","slots":"29","zip":"3104","address":"413 - Parroquia-Avenida Coyoac\u00e1n","addressNumber":"S\/N","nearbyStations":"396,414,424","status":"OPN","name":"413 PARROQUIA-AVENIDA COYOAC\u00c1N","stationType":"BIKE"},{"id":"414","district":"DVS","lon":"-99.173712","lat":"19.370187","bikes":"7","slots":"22","zip":"3104","address":"414 - Parroquia-Jos\u00e9 Ignacio Bartolache","addressNumber":"S\/N","nearbyStations":"413,415,423","status":"OPN","name":"414 PARROQUIA-JOS\u00c9 IGNACIO BARTOLACHE","stationType":"BIKE"},{"id":"415","district":"DVS","lon":"-99.17602","lat":"19.371498","bikes":"3","slots":"27","zip":"3104","address":"415 - San Francisco-Parroqu\u00eda","addressNumber":"S\/N","nearbyStations":"391,414,416","status":"OPN","name":"415 SAN FRANCISCO-PARROQU\u00cdA","stationType":"BIKE"},{"id":"416","district":"1","lon":"-99.177607","lat":"19.371308","bikes":"13","slots":"17","zip":"3104","address":"416 - Recreo-Parroqu\u00eda","addressNumber":"S\/N","nearbyStations":"390,391,415","status":"OPN","name":"416 RECREO-PARROQU\u00cdA","stationType":"BIKE"},{"id":"417","district":"INM","lon":"-99.184333","lat":"19.373262","bikes":"5","slots":"25","zip":"3920","address":"417 - Goya-Augusto Rod\u00edn","addressNumber":"S\/N","nearbyStations":"384,385,386","status":"OPN","name":"417 GOYA-AUGUSTO ROD\u00cdN","stationType":"BIKE,TPV"},{"id":"418","district":"INM","lon":"-99.183034","lat":"19.371152","bikes":"3","slots":"33","zip":"3920","address":"418 - Galicia-Actipan","addressNumber":"S\/N","nearbyStations":"388,417,419","status":"OPN","name":"418 GALICIA-ACTIPAN","stationType":"BIKE"},{"id":"419","district":"INM","lon":"-99.181502","lat":"19.370606","bikes":"0","slots":"30","zip":"3920","address":"419 - Actipan-Cadiz","addressNumber":"S\/N","nearbyStations":"418,420,421","status":"OPN","name":"419 ACTIPAN-CADIZ","stationType":"BIKE"},{"id":"420","district":"ACT","lon":"-99.17964","lat":"19.369723","bikes":"16","slots":"9","zip":"3230","address":"420 - Mar\u00eda Luz Bringas-Oso","addressNumber":"S\/N","nearbyStations":"418,419,421","status":"OPN","name":"420 MAR\u00cdA LUZ BRINGAS-OSO","stationType":"BIKE"},{"id":"421","district":"ACT","lon":"-99.179401","lat":"19.369467","bikes":"8","slots":"21","zip":"3230","address":"421 - Mar\u00eda Luz Bringas-Oso","addressNumber":"S\/N","nearbyStations":"419,420,422","status":"OPN","name":"421 MAR\u00cdA LUZ BRINGAS-OSO","stationType":"BIKE"},{"id":"422","district":"ACT","lon":"-99.177487","lat":"19.368356","bikes":"9","slots":"12","zip":"3230","address":"422 - Bufalo-Jos\u00e9 Mar\u00eda Rico (Eje 8)","addressNumber":"S\/N","nearbyStations":"421,423,436","status":"OPN","name":"422 BUFALO-JOS\u00c9 MAR\u00cdA RICO (EJE 8)","stationType":"BIKE"},{"id":"423","district":"ACA","lon":"-99.175342","lat":"19.367631","bikes":"18","slots":"6","zip":"3240","address":"423 - Moras-Jos\u00e9 Mar\u00eda Rico (Eje 8)","addressNumber":"S\/N","nearbyStations":"422,436,437","status":"OPN","name":"423 MORAS-JOS\u00c9 MAR\u00cdA RICO (EJE 8)","stationType":"BIKE"},{"id":"424","district":"DVS","lon":"-99.170531","lat":"19.367208","bikes":"0","slots":"15","zip":"3104","address":"424 - Amores-Jos\u00e9 Mar\u00eda Rico (Eje 8)","addressNumber":"S\/N","nearbyStations":"413,425,435","status":"OPN","name":"424 AMORES-JOS\u00c9 MAR\u00cdA RICO (EJE 8)","stationType":"BIKE"},{"id":"425","district":"DVS","lon":"-99.16741","lat":"19.367087","bikes":"9","slots":"27","zip":"3104","address":"425 - Nicolas San Juan-Avenida Universidad","addressNumber":"S\/N","nearbyStations":"411,412,426","status":"OPN","name":"425 NICOLAS SAN JUAN-AVENIDA UNIVERSIDAD","stationType":"BIKE"},{"id":"426","district":"XOC","lon":"-99.166017","lat":"19.365519","bikes":"10","slots":"23","zip":"3330","address":"426 - Cerrada De Popocatepetl-Av. Popocatepetl (Eje","addressNumber":"S\/N","nearbyStations":"411,412,425","status":"OPN","name":"426 CERRADA DE POPOCATEPETL-AV. POPOCATEPETL (EJE ","stationType":"BIKE"},{"id":"427","district":"SCA","lon":"-99.162993","lat":"19.365023","bikes":"6","slots":"15","zip":"3310","address":"427 - Avenida M\u00e9xico-Coyoacan-Av. Popocatepetl (Eje","addressNumber":"S\/N","nearbyStations":"411,412,426","status":"OPN","name":"427 AVENIDA M\u00c9XICO-COYOACAN-AV. POPOCATEPETL (EJE ","stationType":"BIKE"},{"id":"428","district":"GPM","lon":"-99.160353","lat":"19.363418","bikes":"7","slots":"20","zip":"3340","address":"428 - Prolongaci\u00f3n Uxmal-Av. Popocatepetl (Eje 8)","addressNumber":"S\/N","nearbyStations":"427,430,431","status":"OPN","name":"428 PROLONGACI\u00d3N UXMAL-AV. POPOCATEPETL (EJE 8)","stationType":"BIKE"},{"id":"429","district":"SCA","lon":"-99.158292","lat":"19.363071","bikes":"5","slots":"14","zip":"3310","address":"429 - Pirineos-Av. Popocatepetl (Eje 8)","addressNumber":"S\/N","nearbyStations":"428,430,431","status":"OPN","name":"429 PIRINEOS-AV. POPOCATEPETL (EJE 8)","stationType":"BIKE"},{"id":"430","district":"SCA","lon":"-99.154974","lat":"19.362139","bikes":"7","slots":"21","zip":"3310","address":"430 - Tripoli-Av. Popocatepetl (Eje 8)","addressNumber":"S\/N","nearbyStations":"409,429,431","status":"OPN","name":"430 TRIPOLI-AV. POPOCATEPETL (EJE 8)","stationType":"BIKE"},{"id":"431","district":"GPM","lon":"-99.15822","lat":"19.36145","bikes":"16","slots":"5","zip":"3340","address":"431 - Bruno Traven-Paz Montes De Oca","addressNumber":"S\/N","nearbyStations":"428,429,430","status":"OPN","name":"431 BRUNO TRAVEN-PAZ MONTES DE OCA","stationType":"BIKE"},{"id":"432","district":"GPM","lon":"-99.162581","lat":"19.361296","bikes":"8","slots":"28","zip":"3340","address":"432 - Carrillo Pto-Golondrinas","addressNumber":"S\/N","nearbyStations":"442,443,444","status":"OPN","name":"432 CARRILLO PUERTO-AV. M\u00c9XICO-COYOAC\u00c1N","stationType":"BIKE"},{"id":"433","district":"DVS","lon":"-99.170819","lat":"19.363558","bikes":"19","slots":"1","zip":"3104","address":"433 - Jose Mar\u00eda Olloqui-Lop\u00e9z Costilla","addressNumber":"S\/N","nearbyStations":"434,435,439","status":"OPN","name":"433 JOSE MAR\u00cdA OLLOQUI-LOP\u00c9Z COSTILLA","stationType":"BIKE"},{"id":"434","district":"DVS","lon":"-99.171268","lat":"19.363741","bikes":"12","slots":"9","zip":"3104","address":"434 - Jose Mar\u00eda Olloqui-Amores","addressNumber":"S\/N","nearbyStations":"391,433,435","status":"OPN","name":"E434 JOSE MAR\u00cdA OLLOQUI-AMORES","stationType":"ELECTRIC_BIKE"},{"id":"435","district":"ACT","lon":"-99.172906","lat":"19.365154","bikes":"4","slots":"32","zip":"3230","address":"435 - Rodriguez Saro-Avenida Coyoac\u00e1n","addressNumber":"S\/N","nearbyStations":"433,434,438","status":"OPN","name":"435 RODRIGUEZ SARO-AVENIDA COYOAC\u00c1N","stationType":"BIKE"},{"id":"436","district":"ACA","lon":"-99.177819","lat":"19.366217","bikes":"15","slots":"15","zip":"3240","address":"436 - Rodriguez Saro-Bufallo","addressNumber":"S\/N","nearbyStations":"422,423,437","status":"OPN","name":"436 RODRIGUEZ SARO-BUFALLO","stationType":"BIKE"},{"id":"437","district":"1","lon":"-99.17602222","lat":"19.36480833","bikes":"6","slots":"14","zip":"3240","address":"437 - Moras-Comunal","addressNumber":"S\/N","nearbyStations":"423,436,438","status":"OPN","name":"437 MORAS-COMUNAL","stationType":"BIKE"},{"id":"438","district":"1","lon":"-99.17458333","lat":"19.36479722","bikes":"14","slots":"9","zip":"3240","address":"438 - Adolfo Prieto-Jos\u00e9 Mar\u00eda Olloqui","addressNumber":"S\/N","nearbyStations":"434,435,437","status":"OPN","name":"438 ADOLFO PRIETO-JOS\u00c9 MAR\u00cdA OLLOQUI","stationType":"BIKE"},{"id":"439","district":"ACA","lon":"-99.17246667","lat":"19.36218889","bikes":"11","slots":"6","zip":"3240","address":"439 - Amores-Avenida Coyoac\u00e1n","addressNumber":"S\/N","nearbyStations":"433,434,438","status":"OPN","name":"439 AMORES-AVENIDA COYOAC\u00c1N","stationType":"BIKE"},{"id":"440","district":"1","lon":"-99.168669","lat":"19.36065","bikes":"10","slots":"26","zip":"3330","address":"440 - Real De Mayorazgo-Puente Xoco","addressNumber":"S\/N","nearbyStations":"433,439,441","status":"OPN","name":"440 REAL DE MAYORAZGO-PUENTE XOCO","stationType":"BIKE"},{"id":"441","district":"XOC","lon":"-99.167527","lat":"19.361215","bikes":"6","slots":"30","zip":"3330","address":"441 - Puente Xoco-Real De Mayorazgo","addressNumber":"S\/N","nearbyStations":"433,440,442","status":"OPN","name":"441 PUENTE XOCO-REAL DE MAYORAZGO","stationType":"BIKE"},{"id":"442","district":"XOC","lon":"-99.1653","lat":"19.359905","bikes":"23","slots":"0","zip":"3330","address":"442 - Real De Mayorazgo-Avenida M\u00e9xico-Coyoacan","addressNumber":"S\/N","nearbyStations":"432,443,444","status":"OPN","name":"442 REAL DE MAYORAZGO-AVENIDA M\u00c9XICO-COYOACAN","stationType":"BIKE,TPV"},{"id":"443","district":"1","lon":"-99.162025","lat":"19.359655","bikes":"25","slots":"5","zip":"3340","address":"443 - Bruno Trave-Avenida M\u00e9xico-Coyoacan","addressNumber":"S\/N","nearbyStations":"432,442,444","status":"OPN","name":"443 BRUNO TRAVEN-GOLONDRINAS","stationType":"BIKE"},{"id":"444","district":"GPM","lon":"-99.159425","lat":"19.359384","bikes":"7","slots":"11","zip":"3340","address":"444 - General Manuel Rinc\u00f3n-Agust\u00edn Gutierrez","addressNumber":"S\/N","nearbyStations":"431,432,443","status":"OPN","name":"444 GENERAL MANUEL RINC\u00d3N-AGUST\u00cdN GUTIERREZ","stationType":"BIKE"},{"id":"445","district":"GPM","lon":"-99.156105","lat":"19.35827","bikes":"7","slots":"17","zip":"3340","address":"445 - Riff-Avenida Rio Churubusco","addressNumber":"S\/N","nearbyStations":"431,434,446","status":"OPN","name":"E445 RIFF-AVENIDA RIO CHURUBUSCO","stationType":"ELECTRIC_BIKE"},{"id":"446","district":"GPM","lon":"-99.156101","lat":"19.3586","bikes":"14","slots":"22","zip":"3340","address":"446 - Riff-Avenida Rio Churubusco","addressNumber":"S\/N","nearbyStations":"431,444,445","status":"OPN","name":"446 RIFF-AVENIDA RIO CHURUBUSCO","stationType":"BIKE,TPV"},{"id":"447","district":"JUA","lon":"-99.176776","lat":"19.418858","bikes":"10","slots":"17","address":"447 AGUST\u00cdN MELGAR-ZAMORA","addressNumber":"S\/N","nearbyStations":"447","status":"OPN","name":"447 AGUST\u00cdN MELGAR-ZAMORA","stationType":"BIKE"},{"id":"448","lon":"-99.14447","lat":"19.426611","bikes":"10","slots":"19","address":"DR. ANDRADE ARCOS DE BEL\u00c9N","addressNumber":"S\/N","nearbyStations":"448","status":"OPN","name":"448 DR. ANDRADE - ARCOS DE BEL\u00c9N","stationType":"BIKE,TPV"},{"id":"449","district":"JUA","lon":"-99.174393","lat":"19.42018","bikes":"1","slots":"23","address":"449 ACAPULCO-PUEBLA","addressNumber":"S\/N","nearbyStations":"33,36,37,139","status":"OPN","name":"E449 ACAPULCO-PUEBLA","stationType":"ELECTRIC_BIKE"},{"id":"450","district":"TAB","lon":"-99.152226","lat":"19.43836","bikes":"6","slots":"24","address":"450 RAMOS ARIZPE-PUENTE DE ALVARADO","addressNumber":"S\/N","nearbyStations":"450","status":"OPN","name":"450 RAMOS ARIZPE-PUENTE DE ALVARADO","stationType":"BIKE"},{"id":"451","district":"POL","lon":"-99.201322","lat":"19.42902","bikes":"0","slots":"36","address":"451 CAMPOS EL\u00cdSEOS-GOLDSMITH","addressNumber":"S\/N","nearbyStations":"451","status":"OPN","name":"451 CAMPOS EL\u00cdSEOS-GOLDSMITH","stationType":"BIKE"},{"id":"452","district":"2","lon":"-99.179838","lat":"19.435031","bikes":"6","slots":"12","address":"452 LEIBNITZ-AV. EJERCITO NACIONAL","addressNumber":"S\/N","nearbyStations":"452","status":"OPN","name":"452 LEIBNITZ-AV. EJERCITO NACIONAL","stationType":"BIKE"},{"id":"453","district":"MDR","lon":"-99.203739","lat":"19.424842","bikes":"11","slots":"22","address":"453 PEDREGAL-TEAPA","addressNumber":"S\/N","nearbyStations":"455,456,458","status":"OPN","name":"453 PEDREGAL-TEAPA","stationType":"BIKE"},{"id":"454","district":"LMV","lon":"-99.204236","lat":"19.425905","bikes":"10","slots":"13","address":"454 MONTES URALES-MONTE PELVOUX","addressNumber":"S\/N","nearbyStations":"453,455,456,457,458,459","status":"OPN","name":"E454 MONTES URALES-MONTE PELVOUX","stationType":"ELECTRIC_BIKE"},{"id":"455","district":"LMV","lon":"-99.203302","lat":"19.426308","bikes":"2","slots":"22","address":"455 PEDREGAL-FERROCARRIL DE CUERNAVACA","addressNumber":"S\/N","nearbyStations":"453,456,458","status":"OPN","name":"455 PEDREGAL-FERROCARRIL DE CUERNAVACA","stationType":"BIKE"},{"id":"456","district":"LCH","lon":"-99.208412","lat":"19.427517","bikes":"0","slots":"27","address":"456 ALPES-MONTES ESCANDINAVOS","addressNumber":"S\/N","nearbyStations":"453,455,458","status":"OPN","name":"456 ALPES-MONTES ESCANDINAVOS","stationType":"BIKE"},{"id":"457","district":"LCH","lon":"-99.212845","lat":"19.42703","bikes":"7","slots":"16","address":"457 AV. PRADO NORTE-EXPLANADA","addressNumber":"S\/N","nearbyStations":"454,456,459","status":"OPN","name":"E457 AV. PRADO NORTE-EXPLANADA","stationType":"ELECTRIC_BIKE"},{"id":"458","district":"LCI","lon":"-99.206605","lat":"19.428679","bikes":"1","slots":"23","address":"458 MONTES URALES-VOLC\u00c1N","addressNumber":"S\/N","nearbyStations":"453,455,456","status":"OPN","name":"458 MONTES URALES-VOLC\u00c1N","stationType":"BIKE"},{"id":"459","district":"LCI","lon":"-99.207267","lat":"19.429243","bikes":"3","slots":"21","address":"459 VOLC\u00c1N-MONTES URALES","addressNumber":"S\/N","nearbyStations":"454,457,458","status":"OPN","name":"E459 VOLC\u00c1N-MONTES URALES","stationType":"ELECTRIC_BIKE"},{"id":"460","district":"POL","lon":"-99.207932","lat":"19.437014","bikes":"1","slots":"31","address":"460 JUAN V\u00c1ZQUEZ DE MELLA-HOMERO","addressNumber":"S\/R","nearbyStations":"198,209,240","status":"OPN","name":"460 JUAN V\u00c1ZQUEZ DE MELLA-HOMERO","stationType":"BIKE"},{"id":"461","district":"IRR","lon":"-99.210031","lat":"19.440106","bikes":"5","slots":"27","address":"461 PRESA DON MART\u00cdN-BOULEVARD MIGUEL DE CERVANTES","addressNumber":"S\/N","nearbyStations":"197,240,460","status":"OPN","name":"461 PRESA DON MART\u00cdN-BOULEVARD MIGUEL DE CERVANTES","stationType":"BIKE"},{"id":"462","district":"IRR","lon":"-99.205198","lat":"19.442338","bikes":"0","slots":"24","address":"462 PRESA FALC\u00d3N-DANXH\u00d3","addressNumber":"S\/N","nearbyStations":"197,240","status":"OPN","name":"462 PRESA FALC\u00d3N-DANXH\u00d3","stationType":"BIKE"},{"id":"463","district":"1","lon":"-99.202492","lat":"19.442338","bikes":"0","slots":"27","address":"463 LAGO ANDR\u00d3MACO-LAGO ZURICH","addressNumber":"S\/N","nearbyStations":"197,242,462","status":"CLS","name":"463 LAGO ANDR\u00d3MACO-LAGO ZURICH","stationType":"BIKE"},{"id":"464","district":"AMG","lon":"-99.199838","lat":"19.442421","bikes":"3","slots":"18","address":"464 MATEO ALEM\u00c1N-PROLONGACI\u00d3N MOLIERE ","addressNumber":"S\/N ","nearbyStations":"241,242,467","status":"OPN","name":"E464 MATEO ALEM\u00c1N-PROLONGACI\u00d3N MOLIERE ","stationType":"ELECTRIC_BIKE"},{"id":"465","district":"CUP","lon":"-99.194078","lat":"19.445039","bikes":"7","slots":"19","address":"465 LAGUNA DE GINEBRA-LAGO WETTER","addressNumber":"S\/N","nearbyStations":"243,244,466","status":"OPN","name":"465 LAGUNA DE GINEBRA-LAGO WETTER","stationType":"BIKE"},{"id":"466","district":"ANH","lon":"-99.19083","lat":"19.44269","bikes":"18","slots":"6","address":"466  LAGO ONEGA-LAGO LADOGA","addressNumber":"S\/N","nearbyStations":"243,244,465","status":"OPN","name":"466  LAGO ONEGA-LAGO LADOGA","stationType":"BIKE"},{"id":"467","district":"GRA","lon":"-99.186784","lat":"19.440399","bikes":"2","slots":"22","address":"467  LAGO MAYOR-LAGO ALBERTO","addressNumber":"S\/N","nearbyStations":"464,472,479","status":"OPN","name":"E467  LAGO MAYOR-LAGO ALBERTO","stationType":"ELECTRIC_BIKE"},{"id":"468","district":"ANI","lon":"-99.1796833","lat":"19.4366022","bikes":"0","slots":"32","address":"468 LAGO XOCHIMILCO-AV. EJ\u00c9RCITO NACIONAL","addressNumber":"S\/N","nearbyStations":"452,474,475","status":"OPN","name":"468 LAGO XOCHIMILCO-AV. EJ\u00c9RCITO NACIONAL","stationType":"BIKE"},{"id":"469","district":"2","lon":"-99.173089","lat":"19.434183","bikes":"6","slots":"17","address":"469BAH\u00cdA DELA CONCEPCI\u00d3N-BAH\u00cdA DE TODOS LOS SANTOS","addressNumber":"S\/N","nearbyStations":"247,470,472","status":"OPN","name":"E469 BAH\u00cdA DE LA CONCEPCI\u00d3N-BAH\u00cdA DE TODOS LOS SAN","stationType":"ELECTRIC_BIKE"},{"id":"470","district":"2","lon":"-99.173879","lat":"19.435039","bikes":"16","slots":"11","address":"470 BAH\u00cdA DE LAS PALMAS-BAH\u00cdA DE TODOS LOS SANTOS ","addressNumber":"S\/N","nearbyStations":"471,473","status":"OPN","name":"470 BAH\u00cdA DE LAS PALMAS-BAH\u00cdA DE TODOS LOS SANTOS","stationType":"BIKE"},{"id":"471","district":"2","lon":"-99.174888","lat":"19.436287","bikes":"6","slots":"18","address":"471 BAH\u00cdA DE CHACHALACAS-BAH\u00cdA SANTA B\u00c1RBARA ","addressNumber":"S\/N","nearbyStations":"470,473,474","status":"OPN","name":"471 BAH\u00cdA DE CHACHALACAS-BAH\u00cdA SANTA B\u00c1RBARA ","stationType":"BIKE"},{"id":"472","district":"2","lon":"-99.17711","lat":"19.437667","bikes":"1","slots":"23","address":"472 BAH\u00cdA SANTA B\u00c1RBARA-BAH\u00cdA DE BALLENAS ","addressNumber":"S\/N","nearbyStations":"247,469,471,473,474,479","status":"OPN","name":"E472 BAH\u00cdA SANTA B\u00c1RBARA-BAH\u00cdA DE BALLENAS ","stationType":"ELECTRIC_BIKE"},{"id":"473","district":"2","lon":"-99.17519","lat":"19.438143","bikes":"3","slots":"32","address":"473 BAH\u00cdA DEL ESP\u00cdRITU SANTO-BAH\u00cdA DE BANDERAS","addressNumber":"S\/N","nearbyStations":"471,474,478","status":"OPN","name":"473 BAH\u00cdA DEL ESP\u00cdRITU SANTO-BAH\u00cdA DE BANDERAS","stationType":"BIKE,TPV"},{"id":"474","district":"ANI","lon":"-99.177549","lat":"19.438984","bikes":"0","slots":"32","address":"474 BAH\u00cdA DE SAN HIP\u00d3LITO-BAH\u00cdA DEL ESP\u00cdRITU SANTO","addressNumber":"S\/N","nearbyStations":"473,475,478","status":"OPN","name":"474 BAH\u00cdA DE SAN HIP\u00d3LITO-BAH\u00cdA DEL ESP\u00cdRITU SANTO","stationType":"BIKE"},{"id":"475","district":"ANI","lon":"-99.181065","lat":"19.439249","bikes":"2","slots":"22","address":"475 LAGO MURITZ-LAGO ALBERTO","addressNumber":"S\/N","nearbyStations":"468,474,477","status":"OPN","name":"475 LAGO MURITZ-LAGO ALBERTO","stationType":"BIKE"},{"id":"476","district":"GRA","lon":"-99.184433","lat":"19.442127","bikes":"0","slots":"35","address":"476 LAGO COMO-LAGUNA DE MAYR\u00c1N","addressNumber":"S\/N","nearbyStations":"475,477","status":"OPN","name":"476 LAGO COMO-LAGUNA DE MAYR\u00c1N","stationType":"BIKE,TPV"},{"id":"477","district":"ANI","lon":"-99.181743","lat":"19.440905","bikes":"2","slots":"22","address":"477 LAGO ISEO-LAGUNA DE MAYR\u00c1N ","addressNumber":"S\/N","nearbyStations":"475,476,478","status":"OPN","name":"477 LAGO ISEO-LAGUNA DE MAYR\u00c1N ","stationType":"BIKE"},{"id":"478","district":"ANI","lon":"-99.176961","lat":"19.440818","bikes":"11","slots":"16","address":"478 LAGUNA DE MAYR\u00c1N-LAGO CHALCO","addressNumber":"S\/N","nearbyStations":"473,474,477","status":"OPN","name":"478 LAGUNA DE MAYR\u00c1N-LAGO CHALCO","stationType":"BIKE"},{"id":"479","district":"AME","lon":"-99.179664","lat":"19.444433","bikes":"7","slots":"17","address":"479 LAGO MURITZ-AV.MARINA NACIONAL","addressNumber":"S\/N","nearbyStations":"467,469,472,476,477,478","status":"OPN","name":"E479 LAGO MURITZ-AV. MARINA NACIONAL","stationType":"ELECTRIC_BIKE"},{"id":"480","district":"AME","lon":"-99.181654","lat":"19.446073","bikes":"6","slots":"15","address":"480 LAGO ISEO-AV. MARINA NACIONAL","addressNumber":"S\/N","nearbyStations":"476,477,478","status":"OPN","name":"480 LAGO ISEO-AV. MARINA NACIONAL","stationType":"BIKE"}]